Date,Time,RUNNING,VELOCITY,DENSITY,DISCHPR,SWINGSPD,SWINGRADIUS,CDBW,MDBW,CONFIGURATION,UWPINTAKE,UWPDISCH,UWPHP,UWPHPLIMIT,UWPGEAR,UWPRPM,UWPRPMSP,P1INTAKE,P1DISCH,P1HP,P1HPLIMIT,P1GEAR,P1ENGRPM,P1RPMSP,P1FCSP,P1PCSP,P1DPCSP,P1SMSP,P2INTAKE,P2DISCH,P2HP,P2HPLIMIT,P2GEAR,P2ENGRPM,P2RPMSP,P2FCSP,P2SPCSP,P2DPCSP,P2MCSP,CUTTERT,CUTTERTLIM,CUTTERRPM,CUTTERRPMSP,PSWINGLP,PSWINGLPLIM,PSWINGDRUMDIA,PSWINGLS,PSWINGLSSP,SSWINGLP,SSWINGLPLIM,SSWINGDRUMDIA,SSWINGLS,SSWINGLSSP,PLADDERLP,PLADDERLPLIM,PLADDERLS,PLADDERLSSP,SLADDERLP,SLADDERLPLIM,SLADDERLS,SLADDERLSSP,SPUDMAINXS_LP,SPMAINLPLIM,SPMAINLS,SPMAINLSSP,SPMAINPOS,SPUDAUXLP,SPUDAUXLPLIM,SPUDAUXLS,SPUDAUXLSSP,SPUDAUXPOS,SPUDCARLP,SPUDCARLPLIM,SPUDCARLS,SPUDCARLSSP,SPUDCARPOS,SPUDX,SPUDY,SPUDSTAT,SPUDRNG,CUTTERX,CUTTERY,CUTTERSTAT,CUTTERRNG,CUTTERELEV,TIDE,HEADING,DRAFT,LANGLE,CHOT,CDBT,MDBT,HULLPITCH,HULLROLL,HULLHEAVE,SRVSTATUS,SRVUWPINOPNSP,SRVUWPINCLSSP,SRVUWPOUTOPNSP,SRVUWPOUTCLSSP_1,SRVP1OUTOPNSP,SRVP1OUTCLSSP,SRVP2OUTOPNSP,SRVP2OUTCLSSP,GEN1LOADPC,GEN2LOADPC,GEN3LOADPC,B1P1INTAKE,B1P1DISCH,B1P1HP,B1P1HPLIMIT,B1P1GEAR,B1P1ENGRPM,B1P1RPMSP,B1P1FCSP,B1P1SPCSP,B1P1DPCSP,B1P1SMSP,B1P2INTAKE,B1P2DISCH,B1P2HP,B1P2HPLIMIT,B1P2GEAR,B1P2ENGRPM,B1P2RPMSP,B1P2FCSP,B1P2SPCSP,B1P2DPCSP,B1P2SMCSP,B2P1INTAKE,B2P1DISCH,B2P1HP,B2P1HPLIMIT,B2P1GEAR,B2P1ENGRPM,B2P1RPMSP,B2P1FCSP,B2P1SPCSP,B2P1DPCSP,B2P1SMSP,B2P2INTAKE,B2P2DISCH,B2P2HP,B2P2HPLIMIT,B2P2GEAR,B2P2ENGRPM,B2P2RPMSP,B2P2FCSP,B2P2SPCSP,B2P2DPCSP,B2P2SMCSP
2019/12/21,00:00:00,OFF,-0.1,1.00,0,0.0,387,22.3,20.9,0,70,-1,0,0,0.00,0,0,-1,0,0,0,0.00,1,0,0.0,0,0,0,0,0,0,0,0.00,0,0,0.0,0,0,0,0,0,0.0,3.2,0,0,0.00,0,0,0,0,0.00,0,0,0,0,0,0,0,0,0,0,0,0,0,0,0,0,0,0,0,0,0,0,0,0,0,0,0,0,0,0,0,0,0,0.0,0.0,0.0,9.5,16.2,86.9,20.0,1000.0,0.0,0.0,0,1,15,25,129,154,0,0,0,0,0,13,0,0,0,0,0,0,0,0,0,0,0,0,0,0,0,0,0,0,0,0,0,0,0,0,0,0,0,0,0,0,0,0,0,0,0,0,0,0,0,0,0,0,0,0,0
2019/12/21,00:00:10,OFF,-0.1,1.00,0,0.0,387,22.3,20.9,0,70,-1,0,0,0.00,0,0,-1,0,0,0,0.00,1,0,0.0,0,0,0,0,0,0,0,0.00,0,0,0.0,0,0,0,0,0,0.0,3.2,0,0,0.00,0,0,0,0,0.00,0,0,0,0,0,0,0,0,0,0,0,0,0,0,0,0,0,0,0,0,0,0,0,0,0,0,0,0,0,0,0,0,0,0.0,0.0,0.0,9.5,16.2,86.9,20.0,1000.0,0.0,0.0,0,1,15,25,129,154,0,0,0,0,0,13,0,0,0,0,0,0,0,0,0,0,0,0,0,0,0,0,0,0,0,0,0,0,0,0,0,0,0,0,0,0,0,0,0,0,0,0,0,0,0,0,0,0,0,0,0
2019/12/21,00:00:20,OFF,-0.1,1.00,0,0.0,387,22.3,20.9,0,70,-1,0,0,0.00,0,0,-1,0,0,0,0.00,0,0,0.0,0,0,0,0,0,0,0,0.00,0,0,0.0,0,0,0,0,0,0.0,3.2,0,0,0.00,0,0,0,0,0.00,0,0,0,0,0,0,0,0,0,0,0,0,0,0,0,0,0,0,0,0,0,0,0,0,0,0,0,0,0,0,0,0,0,0.0,0.0,0.0,9.5,16.2,86.9,20.0,1000.0,0.0,0.0,0,1,15,25,129,154,0,0,0,0,0,13,0,0,0,0,0,0,0,0,0,0,0,0,0,0,0,0,0,0,0,0,0,0,0,0,0,0,0,0,0,0,0,0,0,0,0,0,0,0,0,0,0,0,0,0,0
2019/12/21,00:00:30,OFF,-0.1,1.00,0,0.0,387,22.3,20.9,0,70,-1,0,0,0.00,0,0,-1,0,0,0,0.00,1,0,0.0,0,0,0,0,0,0,0,0.00,0,0,0.0,0,0,0,0,0,0.0,3.2,0,0,0.00,0,0,0,0,0.00,0,0,0,0,0,0,0,0,0,0,0,0,0,0,0,0,0,0,0,0,0,0,0,0,0,0,0,0,0,0,0,0,0,0.0,0.0,0.0,9.5,16.2,86.9,20.0,1000.0,0.0,0.0,0,1,15,25,129,154,0,0,0,0,0,13,0,0,0,0,0,0,0,0,0,0,0,0,0,0,0,0,0,0,0,0,0,0,0,0,0,0,0,0,0,0,0,0,0,0,0,0,0,0,0,0,0,0,0,0,0
2019/12/21,00:00:40,OFF,-0.1,1.00,0,0.0,387,22.3,20.9,0,70,-1,0,0,0.00,0,0,-1,0,0,0,0.00,1,0,0.0,0,0,0,0,0,0,0,0.00,0,0,0.0,0,0,0,0,0,0.0,3.2,0,0,0.00,0,0,0,0,0.00,0,0,0,0,0,0,0,0,0,0,0,0,0,0,0,0,0,0,0,0,0,0,0,0,0,0,0,0,0,0,0,0,0,0.0,0.0,0.0,9.5,16.2,86.9,20.0,1000.0,0.0,0.0,0,1,15,25,129,154,0,0,0,0,0,13,0,0,0,0,0,0,0,0,0,0,0,0,0,0,0,0,0,0,0,0,0,0,0,0,0,0,0,0,0,0,0,0,0,0,0,0,0,0,0,0,0,0,0,0,0
2019/12/21,00:00:50,OFF,-0.1,1.00,0,0.0,387,22.3,20.9,0,70,-1,0,0,0.00,0,0,-1,0,0,0,0.00,1,0,0.0,0,0,0,0,0,0,0,0.00,0,0,0.0,0,0,0,0,0,0.0,3.2,0,0,0.00,0,0,0,0,0.00,0,0,0,0,0,0,0,0,0,0,0,0,0,0,0,0,0,0,0,0,0,0,0,0,0,0,0,0,0,0,0,0,0,0.0,0.0,0.0,9.5,16.2,86.9,20.0,1000.0,0.0,0.0,0,1,15,25,129,154,0,0,0,0,0,13,0,0,0,0,0,0,0,0,0,0,0,0,0,0,0,0,0,0,0,0,0,0,0,0,0,0,0,0,0,0,0,0,0,0,0,0,0,0,0,0,0,0,0,0,0
2019/12/21,00:01:00,OFF,-0.1,1.00,0,0.0,387,22.3,20.9,0,70,-1,0,0,0.00,0,0,-1,0,0,0,0.00,1,0,0.0,0,0,0,0,0,0,0,0.00,0,0,0.0,0,0,0,0,0,0.0,3.2,0,0,0.00,0,0,0,0,0.00,0,0,0,0,0,0,0,0,0,0,0,0,0,0,0,0,0,0,0,0,0,0,0,0,0,0,0,0,0,0,0,0,0,0.0,0.0,0.0,9.5,16.2,86.9,20.0,1000.0,0.0,0.0,0,1,15,25,129,154,0,0,0,0,0,12,0,0,0,0,0,0,0,0,0,0,0,0,0,0,0,0,0,0,0,0,0,0,0,0,0,0,0,0,0,0,0,0,0,0,0,0,0,0,0,0,0,0,0,0,0
2019/12/21,00:01:10,OFF,-0.1,1.00,0,0.0,387,22.3,20.9,0,70,-1,0,0,0.00,0,0,-1,0,0,0,0.00,0,0,0.0,0,0,0,0,0,0,0,0.00,0,0,0.0,0,0,0,0,0,0.0,3.2,0,0,0.00,0,0,0,0,0.00,0,0,0,0,0,0,0,0,0,0,0,0,0,0,0,0,0,0,0,0,0,0,0,0,0,0,0,0,0,0,0,0,0,0.0,0.0,0.0,9.5,16.2,86.9,20.0,1000.0,0.0,0.0,0,1,15,25,129,154,0,0,0,0,0,12,0,0,0,0,0,0,0,0,0,0,0,0,0,0,0,0,0,0,0,0,0,0,0,0,0,0,0,0,0,0,0,0,0,0,0,0,0,0,0,0,0,0,0,0,0
2019/12/21,00:01:20,OFF,-0.1,1.00,0,0.0,387,22.3,20.9,0,70,-1,0,0,0.00,0,0,-1,0,0,0,0.00,0,0,0.0,0,0,0,0,0,0,0,0.00,0,0,0.0,0,0,0,0,0,0.0,3.2,0,0,0.00,0,0,0,0,0.00,0,0,0,0,0,0,0,0,0,0,0,0,0,0,0,0,0,0,0,0,0,0,0,0,0,0,0,0,0,0,0,0,0,0.0,0.0,0.0,9.5,16.2,86.9,20.0,1000.0,0.0,0.0,0,1,15,25,129,154,0,0,0,0,0,12,0,0,0,0,0,0,0,0,0,0,0,0,0,0,0,0,0,0,0,0,0,0,0,0,0,0,0,0,0,0,0,0,0,0,0,0,0,0,0,0,0,0,0,0,0
2019/12/21,00:01:30,OFF,-0.1,1.00,0,0.0,387,22.3,20.9,0,70,-1,0,0,0.00,0,0,-1,0,0,0,0.00,1,0,0.0,0,0,0,0,0,0,0,0.00,0,0,0.0,0,0,0,0,0,0.0,3.2,0,0,0.00,0,0,0,0,0.00,0,0,0,0,0,0,0,0,0,0,0,0,0,0,0,0,0,0,0,0,0,0,0,0,0,0,0,0,0,0,0,0,0,0.0,0.0,0.0,9.5,16.2,86.9,20.0,1000.0,0.0,0.0,0,1,15,25,129,154,0,0,0,0,0,12,0,0,0,0,0,0,0,0,0,0,0,0,0,0,0,0,0,0,0,0,0,0,0,0,0,0,0,0,0,0,0,0,0,0,0,0,0,0,0,0,0,0,0,0,0
2019/12/21,00:01:40,OFF,-0.1,1.00,0,0.0,387,22.3,20.9,0,70,-1,0,0,0.00,0,0,-1,0,0,0,0.00,0,0,0.0,0,0,0,0,0,0,0,0.00,0,0,0.0,0,0,0,0,0,0.0,3.2,0,0,0.00,0,0,0,0,0.00,0,0,0,0,0,0,0,0,0,0,0,0,0,0,0,0,0,0,0,0,0,0,0,0,0,0,0,0,0,0,0,0,0,0.0,0.0,0.0,9.5,16.2,86.9,20.0,1000.0,0.0,0.0,0,1,15,25,129,154,0,0,0,0,0,12,0,0,0,0,0,0,0,0,0,0,0,0,0,0,0,0,0,0,0,0,0,0,0,0,0,0,0,0,0,0,0,0,0,0,0,0,0,0,0,0,0,0,0,0,0
2019/12/21,00:01:50,OFF,-0.1,1.00,0,0.0,387,22.3,20.9,0,70,-1,0,0,0.00,0,0,-1,0,0,0,0.00,0,0,0.0,0,0,0,0,0,0,0,0.00,0,0,0.0,0,0,0,0,0,0.0,3.2,0,0,0.00,0,0,0,0,0.00,0,0,0,0,0,0,0,0,0,0,0,0,0,0,0,0,0,0,0,0,0,0,0,0,0,0,0,0,0,0,0,0,0,0.0,0.0,0.0,9.5,16.2,86.9,20.0,1000.0,0.0,0.0,0,1,15,25,129,154,0,0,0,0,0,12,0,0,0,0,0,0,0,0,0,0,0,0,0,0,0,0,0,0,0,0,0,0,0,0,0,0,0,0,0,0,0,0,0,0,0,0,0,0,0,0,0,0,0,0,0
2019/12/21,00:02:00,OFF,-0.1,1.00,0,0.0,387,22.3,20.9,0,70,-1,0,0,0.00,0,0,-1,0,0,0,0.00,1,0,0.0,0,0,0,0,0,0,0,0.00,0,0,0.0,0,0,0,0,0,0.0,3.2,0,0,0.00,0,0,0,0,0.00,0,0,0,0,0,0,0,0,0,0,0,0,0,0,0,0,0,0,0,0,0,0,0,0,0,0,0,0,0,0,0,0,0,0.0,0.0,0.0,9.5,16.2,86.9,20.0,1000.0,0.0,0.0,0,1,15,25,129,154,0,0,0,0,0,12,0,0,0,0,0,0,0,0,0,0,0,0,0,0,0,0,0,0,0,0,0,0,0,0,0,0,0,0,0,0,0,0,0,0,0,0,0,0,0,0,0,0,0,0,0
2019/12/21,00:02:10,OFF,-0.1,1.00,0,0.0,387,22.3,20.9,0,70,-1,0,0,0.00,0,0,-1,0,0,0,0.00,1,0,0.0,0,0,0,0,0,0,0,0.00,0,0,0.0,0,0,0,0,0,0.0,3.2,0,0,0.00,0,0,0,0,0.00,0,0,0,0,0,0,0,0,0,0,0,0,0,0,0,0,0,0,0,0,0,0,0,0,0,0,0,0,0,0,0,0,0,0.0,0.0,0.0,9.5,16.2,86.9,20.0,1000.0,0.0,0.0,0,1,15,25,129,154,0,0,0,0,0,12,0,0,0,0,0,0,0,0,0,0,0,0,0,0,0,0,0,0,0,0,0,0,0,0,0,0,0,0,0,0,0,0,0,0,0,0,0,0,0,0,0,0,0,0,0
2019/12/21,00:02:20,OFF,-0.1,1.00,0,0.0,387,22.3,20.9,0,70,-1,0,0,0.00,0,0,-1,0,0,0,0.00,0,0,0.0,0,0,0,0,0,0,0,0.00,0,0,0.0,0,0,0,0,0,0.0,3.2,0,0,0.00,0,0,0,0,0.00,0,0,0,0,0,0,0,0,0,0,0,0,0,0,0,0,0,0,0,0,0,0,0,0,0,0,0,0,0,0,0,0,0,0.0,0.0,0.0,9.5,16.2,86.9,20.0,1000.0,0.0,0.0,0,1,15,25,129,154,0,0,0,0,0,12,0,0,0,0,0,0,0,0,0,0,0,0,0,0,0,0,0,0,0,0,0,0,0,0,0,0,0,0,0,0,0,0,0,0,0,0,0,0,0,0,0,0,0,0,0
2019/12/21,00:02:30,OFF,-0.1,1.00,0,0.0,387,22.3,20.9,0,70,-1,0,0,0.00,0,0,-1,0,0,0,0.00,1,0,0.0,0,0,0,0,0,0,0,0.00,0,0,0.0,0,0,0,0,0,0.0,3.2,0,0,0.00,0,0,0,0,0.00,0,0,0,0,0,0,0,0,0,0,0,0,0,0,0,0,0,0,0,0,0,0,0,0,0,0,0,0,0,0,0,0,0,0.0,0.0,0.0,9.5,16.2,86.9,20.0,1000.0,0.0,0.0,0,1,15,25,129,154,0,0,0,0,0,12,0,0,0,0,0,0,0,0,0,0,0,0,0,0,0,0,0,0,0,0,0,0,0,0,0,0,0,0,0,0,0,0,0,0,0,0,0,0,0,0,0,0,0,0,0
2019/12/21,00:02:40,OFF,-0.1,1.00,0,0.0,387,22.3,20.9,0,70,-1,0,0,0.00,0,0,-1,0,0,0,0.00,1,0,0.0,0,0,0,0,0,0,0,0.00,0,0,0.0,0,0,0,0,0,0.0,3.2,0,0,0.00,0,0,0,0,0.00,0,0,0,0,0,0,0,0,0,0,0,0,0,0,0,0,0,0,0,0,0,0,0,0,0,0,0,0,0,0,0,0,0,0.0,0.0,0.0,9.5,16.2,86.9,20.0,1000.0,0.0,0.0,0,1,15,25,129,154,0,0,0,0,0,12,0,0,0,0,0,0,0,0,0,0,0,0,0,0,0,0,0,0,0,0,0,0,0,0,0,0,0,0,0,0,0,0,0,0,0,0,0,0,0,0,0,0,0,0,0
2019/12/21,00:02:50,OFF,-0.1,1.00,0,0.0,387,22.3,20.9,0,70,-1,0,0,0.00,0,0,-1,0,0,0,0.00,0,0,0.0,0,0,0,0,0,0,0,0.00,0,0,0.0,0,0,0,0,0,0.0,3.2,0,0,0.00,0,0,0,0,0.00,0,0,0,0,0,0,0,0,0,0,0,0,0,0,0,0,0,0,0,0,0,0,0,0,0,0,0,0,0,0,0,0,0,0.0,0.0,0.0,9.5,16.2,86.9,20.0,1000.0,0.0,0.0,0,1,15,25,129,154,0,0,0,0,0,13,0,0,0,0,0,0,0,0,0,0,0,0,0,0,0,0,0,0,0,0,0,0,0,0,0,0,0,0,0,0,0,0,0,0,0,0,0,0,0,0,0,0,0,0,0
2019/12/21,00:03:00,OFF,-0.1,1.00,0,0.0,373,22.3,20.9,0,70,-1,0,0,0.00,0,0,-1,0,0,0,0.00,0,0,0.0,0,0,0,0,0,0,0,0.00,0,0,0.0,0,0,0,0,0,0.0,3.2,0,0,0.00,0,0,0,0,0.00,0,0,0,0,0,0,0,0,0,0,0,0,0,0,0,0,0,0,0,0,0,0,0,0,0,0,0,0,0,0,0,0,0,0.0,0.0,0.0,9.5,16.2,86.9,20.0,1000.0,0.0,0.0,0,1,15,25,129,154,0,0,0,0,0,12,0,0,0,0,0,0,0,0,0,0,0,0,0,0,0,0,0,0,0,0,0,0,0,0,0,0,0,0,0,0,0,0,0,0,0,0,0,0,0,0,0,0,0,0,0
2019/12/21,00:03:10,OFF,-0.1,1.00,0,0.0,373,22.3,20.9,0,70,-1,0,0,0.00,0,0,-1,0,0,0,0.00,0,0,0.0,0,0,0,0,0,0,0,0.00,0,0,0.0,0,0,0,0,0,0.0,3.2,0,0,0.00,0,0,0,0,0.00,0,0,0,0,0,0,0,0,0,0,0,0,0,0,0,0,0,0,0,0,0,0,0,0,0,0,0,0,0,0,0,0,0,0.0,0.0,0.0,9.5,16.2,86.9,20.0,1000.0,0.0,0.0,0,1,15,25,129,154,0,0,0,0,0,13,0,0,0,0,0,0,0,0,0,0,0,0,0,0,0,0,0,0,0,0,0,0,0,0,0,0,0,0,0,0,0,0,0,0,0,0,0,0,0,0,0,0,0,0,0
2019/12/21,00:03:20,OFF,-0.1,1.00,0,0.0,387,22.3,20.9,0,70,-1,0,0,0.00,0,0,-1,0,0,0,0.00,1,0,0.0,0,0,0,0,0,0,0,0.00,0,0,0.0,0,0,0,0,0,0.0,3.2,0,0,0.00,0,0,0,0,0.00,0,0,0,0,0,0,0,0,0,0,0,0,0,0,0,0,0,0,0,0,0,0,0,0,0,0,0,0,0,0,0,0,0,0.0,0.0,0.0,9.5,16.2,86.9,20.0,1000.0,0.0,0.0,0,1,15,25,129,154,0,0,0,0,0,13,0,0,0,0,0,0,0,0,0,0,0,0,0,0,0,0,0,0,0,0,0,0,0,0,0,0,0,0,0,0,0,0,0,0,0,0,0,0,0,0,0,0,0,0,0
2019/12/21,00:03:30,OFF,-0.1,1.00,0,0.0,387,22.3,20.9,0,70,-1,0,0,0.00,0,0,-1,0,0,0,0.00,0,0,0.0,0,0,0,0,0,0,0,0.00,0,0,0.0,0,0,0,0,0,0.0,3.2,0,0,0.00,0,0,0,0,0.00,0,0,0,0,0,0,0,0,0,0,0,0,0,0,0,0,0,0,0,0,0,0,0,0,0,0,0,0,0,0,0,0,0,0.0,0.0,0.0,9.5,16.2,86.9,20.0,1000.0,0.0,0.0,0,1,15,25,129,154,0,0,0,0,0,12,0,0,0,0,0,0,0,0,0,0,0,0,0,0,0,0,0,0,0,0,0,0,0,0,0,0,0,0,0,0,0,0,0,0,0,0,0,0,0,0,0,0,0,0,0
2019/12/21,00:03:40,OFF,-0.1,1.00,0,0.0,387,22.3,20.9,0,70,-1,0,0,0.00,0,0,-1,0,0,0,0.00,0,0,0.0,0,0,0,0,0,0,0,0.00,0,0,0.0,0,0,0,0,0,0.0,3.2,0,0,0.00,0,0,0,0,0.00,0,0,0,0,0,0,0,0,0,0,0,0,0,0,0,0,0,0,0,0,0,0,0,0,0,0,0,0,0,0,0,0,0,0.0,0.0,0.0,9.5,16.2,86.9,20.0,1000.0,0.0,0.0,0,1,15,25,129,154,0,0,0,0,0,12,0,0,0,0,0,0,0,0,0,0,0,0,0,0,0,0,0,0,0,0,0,0,0,0,0,0,0,0,0,0,0,0,0,0,0,0,0,0,0,0,0,0,0,0,0
2019/12/21,00:03:50,OFF,-0.1,1.00,0,0.0,373,22.3,20.9,0,70,-1,0,0,0.00,0,0,-1,0,0,0,0.00,1,0,0.0,0,0,0,0,0,0,0,0.00,0,0,0.0,0,0,0,0,0,0.0,3.2,0,0,0.00,0,0,0,0,0.00,0,0,0,0,0,0,0,0,0,0,0,0,0,0,0,0,0,0,0,0,0,0,0,0,0,0,0,0,0,0,0,0,0,0.0,0.0,0.0,9.5,16.2,86.9,20.0,1000.0,0.0,0.0,0,1,15,25,129,154,0,0,0,0,0,12,0,0,0,0,0,0,0,0,0,0,0,0,0,0,0,0,0,0,0,0,0,0,0,0,0,0,0,0,0,0,0,0,0,0,0,0,0,0,0,0,0,0,0,0,0
2019/12/21,00:04:00,OFF,-0.1,1.00,0,0.0,387,22.3,20.9,0,70,-1,0,0,0.00,0,0,-1,0,0,0,0.00,1,0,0.0,0,0,0,0,0,0,0,0.00,0,0,0.0,0,0,0,0,0,0.0,3.2,0,0,0.00,0,0,0,0,0.00,0,0,0,0,0,0,0,0,0,0,0,0,0,0,0,0,0,0,0,0,0,0,0,0,0,0,0,0,0,0,0,0,0,0.0,0.0,0.0,9.5,16.2,86.9,20.0,1000.0,0.0,0.0,0,1,15,25,129,154,0,0,0,0,0,13,0,0,0,0,0,0,0,0,0,0,0,0,0,0,0,0,0,0,0,0,0,0,0,0,0,0,0,0,0,0,0,0,0,0,0,0,0,0,0,0,0,0,0,0,0
2019/12/21,00:04:10,OFF,-0.1,1.00,0,0.0,387,22.3,20.9,0,70,-1,0,0,0.00,0,0,-1,0,0,0,0.00,1,0,0.0,0,0,0,0,0,0,0,0.00,0,0,0.0,0,0,0,0,0,0.0,3.2,0,0,0.00,0,0,0,0,0.00,0,0,0,0,0,0,0,0,0,0,0,0,0,0,0,0,0,0,0,0,0,0,0,0,0,0,0,0,0,0,0,0,0,0.0,0.0,0.0,9.5,16.2,86.9,20.0,1000.0,0.0,0.0,0,1,15,25,129,154,0,0,0,0,0,13,0,0,0,0,0,0,0,0,0,0,0,0,0,0,0,0,0,0,0,0,0,0,0,0,0,0,0,0,0,0,0,0,0,0,0,0,0,0,0,0,0,0,0,0,0
2019/12/21,00:04:20,OFF,-0.1,1.00,0,0.0,387,22.3,20.9,0,70,-1,0,0,0.00,0,0,-1,0,0,0,0.00,1,0,0.0,0,0,0,0,0,0,0,0.00,0,0,0.0,0,0,0,0,0,0.0,3.2,0,0,0.00,0,0,0,0,0.00,0,0,0,0,0,0,0,0,0,0,0,0,0,0,0,0,0,0,0,0,0,0,0,0,0,0,0,0,0,0,0,0,0,0.0,0.0,0.0,9.5,16.2,86.9,20.0,1000.0,0.0,0.0,0,1,15,25,129,154,0,0,0,0,0,14,0,0,0,0,0,0,0,0,0,0,0,0,0,0,0,0,0,0,0,0,0,0,0,0,0,0,0,0,0,0,0,0,0,0,0,0,0,0,0,0,0,0,0,0,0
2019/12/21,00:04:30,OFF,-0.1,1.00,0,0.0,387,22.3,20.9,0,70,-1,0,0,0.00,0,0,-1,0,0,0,0.00,0,0,0.0,0,0,0,0,0,0,0,0.00,0,0,0.0,0,0,0,0,0,0.0,3.2,0,0,0.00,0,0,0,0,0.00,0,0,0,0,0,0,0,0,0,0,0,0,0,0,0,0,0,0,0,0,0,0,0,0,0,0,0,0,0,0,0,0,0,0.0,0.0,0.0,9.5,16.2,86.9,20.0,1000.0,0.0,0.0,0,1,15,25,129,154,0,0,0,0,0,13,0,0,0,0,0,0,0,0,0,0,0,0,0,0,0,0,0,0,0,0,0,0,0,0,0,0,0,0,0,0,0,0,0,0,0,0,0,0,0,0,0,0,0,0,0
2019/12/21,00:04:40,OFF,-0.1,1.00,0,0.0,373,22.3,20.9,0,70,-1,0,0,0.00,0,0,-1,0,0,0,0.00,1,0,0.0,0,0,0,0,0,0,0,0.00,0,0,0.0,0,0,0,0,0,0.0,3.2,0,0,0.00,0,0,0,0,0.00,0,0,0,0,0,0,0,0,0,0,0,0,0,0,0,0,0,0,0,0,0,0,0,0,0,0,0,0,0,0,0,0,0,0.0,0.0,0.0,9.5,16.2,86.9,20.0,1000.0,0.0,0.0,0,1,15,25,129,154,0,0,0,0,0,14,0,0,0,0,0,0,0,0,0,0,0,0,0,0,0,0,0,0,0,0,0,0,0,0,0,0,0,0,0,0,0,0,0,0,0,0,0,0,0,0,0,0,0,0,0
2019/12/21,00:04:50,OFF,-0.1,1.00,0,0.0,387,22.3,20.9,0,70,-1,0,0,0.00,0,0,-1,0,0,0,0.00,0,0,0.0,0,0,0,0,0,0,0,0.00,0,0,0.0,0,0,0,0,0,0.0,3.2,0,0,0.00,0,0,0,0,0.00,0,0,0,0,0,0,0,0,0,0,0,0,0,0,0,0,0,0,0,0,0,0,0,0,0,0,0,0,0,0,0,0,0,0.0,0.0,0.0,9.5,16.2,86.9,20.0,1000.0,0.0,0.0,0,1,15,25,129,154,0,0,0,0,0,0,0,0,0,0,0,0,0,0,0,0,0,0,0,0,0,0,0,0,0,0,0,0,0,0,0,0,0,0,0,0,0,0,0,0,0,0,0,0,0,0,0,0,0,0,0
2019/12/21,00:05:00,OFF,-0.1,1.00,0,0.0,387,22.3,20.9,0,70,-1,0,0,0.00,0,0,-1,0,0,0,0.00,1,0,0.0,0,0,0,0,0,0,0,0.00,0,0,0.0,0,0,0,0,0,0.0,3.2,0,0,0.00,0,0,0,0,0.00,0,0,0,0,0,0,0,0,0,0,0,0,0,0,0,0,0,0,0,0,0,0,0,0,0,0,0,0,0,0,0,0,0,0.0,0.0,0.0,9.5,16.2,86.9,20.0,1000.0,0.0,0.0,0,1,15,25,129,154,0,0,0,0,0,14,0,0,0,0,0,0,0,0,0,0,0,0,0,0,0,0,0,0,0,0,0,0,0,0,0,0,0,0,0,0,0,0,0,0,0,0,0,0,0,0,0,0,0,0,0
2019/12/21,00:05:10,OFF,-0.1,1.00,0,0.0,387,22.3,20.9,0,70,-1,0,0,0.00,0,0,-1,0,0,0,0.00,1,0,0.0,0,0,0,0,0,0,0,0.00,0,0,0.0,0,0,0,0,0,0.0,3.2,0,0,0.00,0,0,0,0,0.00,0,0,0,0,0,0,0,0,0,0,0,0,0,0,0,0,0,0,0,0,0,0,0,0,0,0,0,0,0,0,0,0,0,0.0,0.0,0.0,9.5,16.2,86.9,20.0,1000.0,0.0,0.0,0,1,15,25,129,154,0,0,0,0,0,13,0,0,0,0,0,0,0,0,0,0,0,0,0,0,0,0,0,0,0,0,0,0,0,0,0,0,0,0,0,0,0,0,0,0,0,0,0,0,0,0,0,0,0,0,0
2019/12/21,00:05:20,OFF,-0.1,1.00,0,0.0,387,22.3,20.9,0,70,-1,0,0,0.00,0,0,-1,0,0,0,0.00,0,0,0.0,0,0,0,0,0,0,0,0.00,0,0,0.0,0,0,0,0,0,0.0,3.2,0,0,0.00,0,0,0,0,0.00,0,0,0,0,0,0,0,0,0,0,0,0,0,0,0,0,0,0,0,0,0,0,0,0,0,0,0,0,0,0,0,0,0,0.0,0.0,0.0,9.5,16.2,86.9,20.0,1000.0,0.0,0.0,0,1,15,25,129,154,0,0,0,0,0,13,0,0,0,0,0,0,0,0,0,0,0,0,0,0,0,0,0,0,0,0,0,0,0,0,0,0,0,0,0,0,0,0,0,0,0,0,0,0,0,0,0,0,0,0,0
2019/12/21,00:05:30,OFF,-0.1,1.00,0,0.0,387,22.3,20.9,0,70,-1,0,0,0.00,0,0,-1,0,0,0,0.00,0,0,0.0,0,0,0,0,0,0,0,0.00,0,0,0.0,0,0,0,0,0,0.0,3.2,0,0,0.00,0,0,0,0,0.00,0,0,0,0,0,0,0,0,0,0,0,0,0,0,0,0,0,0,0,0,0,0,0,0,0,0,0,0,0,0,0,0,0,0.0,0.0,0.0,9.5,16.2,86.9,20.0,1000.0,0.0,0.0,0,1,15,25,129,154,0,0,0,0,0,13,0,0,0,0,0,0,0,0,0,0,0,0,0,0,0,0,0,0,0,0,0,0,0,0,0,0,0,0,0,0,0,0,0,0,0,0,0,0,0,0,0,0,0,0,0
2019/12/21,00:05:40,OFF,-0.1,1.00,0,0.0,387,22.3,20.9,0,70,-1,0,0,0.00,0,0,-1,0,0,0,0.00,1,0,0.0,0,0,0,0,0,0,0,0.00,0,0,0.0,0,0,0,0,0,0.0,3.2,0,0,0.00,0,0,0,0,0.00,0,0,0,0,0,0,0,0,0,0,0,0,0,0,0,0,0,0,0,0,0,0,0,0,0,0,0,0,0,0,0,0,0,0.0,0.0,0.0,9.5,16.2,86.9,20.0,1000.0,0.0,0.0,0,1,15,25,129,154,0,0,0,0,0,12,0,0,0,0,0,0,0,0,0,0,0,0,0,0,0,0,0,0,0,0,0,0,0,0,0,0,0,0,0,0,0,0,0,0,0,0,0,0,0,0,0,0,0,0,0
2019/12/21,00:05:50,OFF,-0.1,1.00,0,0.0,387,22.3,20.9,0,70,-1,0,0,0.00,0,0,-1,0,0,0,0.00,1,0,0.0,0,0,0,0,0,0,0,0.00,0,0,0.0,0,0,0,0,0,0.0,3.2,0,0,0.00,0,0,0,0,0.00,0,0,0,0,0,0,0,0,0,0,0,0,0,0,0,0,0,0,0,0,0,0,0,0,0,0,0,0,0,0,0,0,0,0.0,0.0,0.0,9.5,16.2,86.9,20.0,1000.0,0.0,0.0,0,1,15,25,129,154,0,0,0,0,0,12,0,0,0,0,0,0,0,0,0,0,0,0,0,0,0,0,0,0,0,0,0,0,0,0,0,0,0,0,0,0,0,0,0,0,0,0,0,0,0,0,0,0,0,0,0
2019/12/21,00:06:00,OFF,-0.1,1.00,0,0.0,387,22.3,20.9,0,70,-1,0,0,0.00,0,0,-1,0,0,0,0.00,0,0,0.0,0,0,0,0,0,0,0,0.00,0,0,0.0,0,0,0,0,0,0.0,3.2,0,0,0.00,0,0,0,0,0.00,0,0,0,0,0,0,0,0,0,0,0,0,0,0,0,0,0,0,0,0,0,0,0,0,0,0,0,0,0,0,0,0,0,0.0,0.0,0.0,9.5,16.2,86.9,20.0,1000.0,0.0,0.0,0,1,15,25,129,154,0,0,0,0,0,12,0,0,0,0,0,0,0,0,0,0,0,0,0,0,0,0,0,0,0,0,0,0,0,0,0,0,0,0,0,0,0,0,0,0,0,0,0,0,0,0,0,0,0,0,0
2019/12/21,00:06:10,OFF,-0.1,1.00,0,0.0,373,22.3,20.9,0,70,-1,0,0,0.00,0,0,-1,0,0,0,0.00,1,0,0.0,0,0,0,0,0,0,0,0.00,0,0,0.0,0,0,0,0,0,0.0,3.2,0,0,0.00,0,0,0,0,0.00,0,0,0,0,0,0,0,0,0,0,0,0,0,0,0,0,0,0,0,0,0,0,0,0,0,0,0,0,0,0,0,0,0,0.0,0.0,0.0,9.5,16.2,86.9,20.0,1000.0,0.0,0.0,0,1,15,25,129,154,0,0,0,0,0,12,0,0,0,0,0,0,0,0,0,0,0,0,0,0,0,0,0,0,0,0,0,0,0,0,0,0,0,0,0,0,0,0,0,0,0,0,0,0,0,0,0,0,0,0,0
2019/12/21,00:06:20,OFF,-0.1,1.00,0,0.0,387,22.3,20.9,0,70,-1,0,0,0.00,0,0,-1,0,0,0,0.00,0,0,0.0,0,0,0,0,0,0,0,0.00,0,0,0.0,0,0,0,0,0,0.0,3.2,0,0,0.00,0,0,0,0,0.00,0,0,0,0,0,0,0,0,0,0,0,0,0,0,0,0,0,0,0,0,0,0,0,0,0,0,0,0,0,0,0,0,0,0.0,0.0,0.0,9.5,16.2,86.9,20.0,1000.0,0.0,0.0,0,1,15,25,129,154,0,0,0,0,0,12,0,0,0,0,0,0,0,0,0,0,0,0,0,0,0,0,0,0,0,0,0,0,0,0,0,0,0,0,0,0,0,0,0,0,0,0,0,0,0,0,0,0,0,0,0
2019/12/21,00:06:30,OFF,-0.1,1.00,0,0.0,387,22.3,20.9,0,70,-1,0,0,0.00,0,0,-1,0,0,0,0.00,0,0,0.0,0,0,0,0,0,0,0,0.00,0,0,0.0,0,0,0,0,0,0.0,3.2,0,0,0.00,0,0,0,0,0.00,0,0,0,0,0,0,0,0,0,0,0,0,0,0,0,0,0,0,0,0,0,0,0,0,0,0,0,0,0,0,0,0,0,0.0,0.0,0.0,9.5,16.2,86.9,20.0,1000.0,0.0,0.0,0,1,15,25,129,154,0,0,0,0,0,12,0,0,0,0,0,0,0,0,0,0,0,0,0,0,0,0,0,0,0,0,0,0,0,0,0,0,0,0,0,0,0,0,0,0,0,0,0,0,0,0,0,0,0,0,0
2019/12/21,00:06:40,OFF,-0.1,1.00,0,0.0,387,22.3,20.9,0,70,-1,0,0,0.00,0,0,-1,0,0,0,0.00,1,0,0.0,0,0,0,0,0,0,0,0.00,0,0,0.0,0,0,0,0,0,0.0,3.2,0,0,0.00,0,0,0,0,0.00,0,0,0,0,0,0,0,0,0,0,0,0,0,0,0,0,0,0,0,0,0,0,0,0,0,0,0,0,0,0,0,0,0,0.0,0.0,0.0,9.5,16.2,86.9,20.0,1000.0,0.0,0.0,0,1,15,25,129,154,0,0,0,0,0,12,0,0,0,0,0,0,0,0,0,0,0,0,0,0,0,0,0,0,0,0,0,0,0,0,0,0,0,0,0,0,0,0,0,0,0,0,0,0,0,0,0,0,0,0,0
2019/12/21,00:06:50,OFF,-0.1,1.00,0,0.0,387,22.3,20.9,0,70,-1,0,0,0.00,0,0,-1,0,0,0,0.00,0,0,0.0,0,0,0,0,0,0,0,0.00,0,0,0.0,0,0,0,0,0,0.0,3.2,0,0,0.00,0,0,0,0,0.00,0,0,0,0,0,0,0,0,0,0,0,0,0,0,0,0,0,0,0,0,0,0,0,0,0,0,0,0,0,0,0,0,0,0.0,0.0,0.0,9.5,16.2,86.9,20.0,1000.0,0.0,0.0,0,1,15,25,129,154,0,0,0,0,0,12,0,0,0,0,0,0,0,0,0,0,0,0,0,0,0,0,0,0,0,0,0,0,0,0,0,0,0,0,0,0,0,0,0,0,0,0,0,0,0,0,0,0,0,0,0
2019/12/21,00:07:00,OFF,-0.1,1.00,0,0.0,373,22.3,20.9,0,70,-1,0,0,0.00,0,0,-1,0,0,0,0.00,0,0,0.0,0,0,0,0,0,0,0,0.00,0,0,0.0,0,0,0,0,0,0.0,3.2,0,0,0.00,0,0,0,0,0.00,0,0,0,0,0,0,0,0,0,0,0,0,0,0,0,0,0,0,0,0,0,0,0,0,0,0,0,0,0,0,0,0,0,0.0,0.0,0.0,9.5,16.2,86.9,20.0,1000.0,0.0,0.0,0,1,15,25,129,154,0,0,0,0,0,12,0,0,0,0,0,0,0,0,0,0,0,0,0,0,0,0,0,0,0,0,0,0,0,0,0,0,0,0,0,0,0,0,0,0,0,0,0,0,0,0,0,0,0,0,0
2019/12/21,00:07:10,OFF,-0.1,1.00,0,0.0,387,22.3,20.9,0,70,-1,0,0,0.00,0,0,-1,0,0,0,0.00,1,0,0.0,0,0,0,0,0,0,0,0.00,0,0,0.0,0,0,0,0,0,0.0,3.2,0,0,0.00,0,0,0,0,0.00,0,0,0,0,0,0,0,0,0,0,0,0,0,0,0,0,0,0,0,0,0,0,0,0,0,0,0,0,0,0,0,0,0,0.0,0.0,0.0,9.5,16.2,86.9,20.0,1000.0,0.0,0.0,0,1,15,25,129,154,0,0,0,0,0,12,0,0,0,0,0,0,0,0,0,0,0,0,0,0,0,0,0,0,0,0,0,0,0,0,0,0,0,0,0,0,0,0,0,0,0,0,0,0,0,0,0,0,0,0,0
2019/12/21,00:07:20,OFF,-0.1,1.00,0,0.0,387,22.3,20.9,0,70,-1,0,0,0.00,0,0,-1,0,0,0,0.00,1,0,0.0,0,0,0,0,0,0,0,0.00,0,0,0.0,0,0,0,0,0,0.0,3.2,0,0,0.00,0,0,0,0,0.00,0,0,0,0,0,0,0,0,0,0,0,0,0,0,0,0,0,0,0,0,0,0,0,0,0,0,0,0,0,0,0,0,0,0.0,0.0,0.0,9.5,16.2,86.9,20.0,1000.0,0.0,0.0,0,1,15,25,129,154,0,0,0,0,0,12,0,0,0,0,0,0,0,0,0,0,0,0,0,0,0,0,0,0,0,0,0,0,0,0,0,0,0,0,0,0,0,0,0,0,0,0,0,0,0,0,0,0,0,0,0
2019/12/21,00:07:30,OFF,-0.1,1.00,0,0.0,387,22.3,20.9,0,70,-1,0,0,0.00,0,0,-1,0,0,0,0.00,0,0,0.0,0,0,0,0,0,0,0,0.00,0,0,0.0,0,0,0,0,0,0.0,3.2,0,0,0.00,0,0,0,0,0.00,0,0,0,0,0,0,0,0,0,0,0,0,0,0,0,0,0,0,0,0,0,0,0,0,0,0,0,0,0,0,0,0,0,0.0,0.0,0.0,9.5,16.2,86.9,20.0,1000.0,0.0,0.0,0,1,15,25,129,154,0,0,0,0,0,12,0,0,0,0,0,0,0,0,0,0,0,0,0,0,0,0,0,0,0,0,0,0,0,0,0,0,0,0,0,0,0,0,0,0,0,0,0,0,0,0,0,0,0,0,0
2019/12/21,00:07:40,OFF,-0.1,1.00,0,0.0,387,22.3,20.9,0,70,-1,0,0,0.00,0,0,-1,0,0,0,0.00,1,0,0.0,0,0,0,0,0,0,0,0.00,0,0,0.0,0,0,0,0,0,0.0,3.2,0,0,0.00,0,0,0,0,0.00,0,0,0,0,0,0,0,0,0,0,0,0,0,0,0,0,0,0,0,0,0,0,0,0,0,0,0,0,0,0,0,0,0,0.0,0.0,0.0,9.5,16.2,86.9,20.0,1000.0,0.0,0.0,0,1,15,25,129,154,0,0,0,0,0,12,0,0,0,0,0,0,0,0,0,0,0,0,0,0,0,0,0,0,0,0,0,0,0,0,0,0,0,0,0,0,0,0,0,0,0,0,0,0,0,0,0,0,0,0,0
2019/12/21,00:07:50,OFF,-0.1,1.00,0,0.0,387,22.3,20.9,0,70,-1,0,0,0.00,0,0,-1,0,0,0,0.00,1,0,0.0,0,0,0,0,0,0,0,0.00,0,0,0.0,0,0,0,0,0,0.0,3.2,0,0,0.00,0,0,0,0,0.00,0,0,0,0,0,0,0,0,0,0,0,0,0,0,0,0,0,0,0,0,0,0,0,0,0,0,0,0,0,0,0,0,0,0.0,0.0,0.0,9.5,16.2,86.9,20.0,1000.0,0.0,0.0,0,1,15,25,129,154,0,0,0,0,0,12,0,0,0,0,0,0,0,0,0,0,0,0,0,0,0,0,0,0,0,0,0,0,0,0,0,0,0,0,0,0,0,0,0,0,0,0,0,0,0,0,0,0,0,0,0
2019/12/21,00:08:00,OFF,-0.1,1.00,0,0.0,387,22.3,20.9,0,70,-1,0,0,0.00,0,0,-1,0,0,0,0.00,1,0,0.0,0,0,0,0,0,0,0,0.00,0,0,0.0,0,0,0,0,0,0.0,3.2,0,0,0.00,0,0,0,0,0.00,0,0,0,0,0,0,0,0,0,0,0,0,0,0,0,0,0,0,0,0,0,0,0,0,0,0,0,0,0,0,0,0,0,0.0,0.0,0.0,9.5,16.2,86.9,20.0,1000.0,0.0,0.0,0,1,15,25,129,154,0,0,0,0,0,14,0,0,0,0,0,0,0,0,0,0,0,0,0,0,0,0,0,0,0,0,0,0,0,0,0,0,0,0,0,0,0,0,0,0,0,0,0,0,0,0,0,0,0,0,0
2019/12/21,00:08:10,OFF,-0.1,1.00,0,0.0,387,22.3,20.9,0,70,-1,0,0,0.00,0,0,-1,0,0,0,0.00,1,0,0.0,0,0,0,0,0,0,0,0.00,0,0,0.0,0,0,0,0,0,0.0,3.2,0,0,0.00,0,0,0,0,0.00,0,0,0,0,0,0,0,0,0,0,0,0,0,0,0,0,0,0,0,0,0,0,0,0,0,0,0,0,0,0,0,0,0,0.0,0.0,0.0,9.5,16.2,86.9,20.0,1000.0,0.0,0.0,0,1,15,25,129,154,0,0,0,0,0,0,0,0,0,0,0,0,0,0,0,0,0,0,0,0,0,0,0,0,0,0,0,0,0,0,0,0,0,0,0,0,0,0,0,0,0,0,0,0,0,0,0,0,0,0,0
2019/12/21,00:08:20,OFF,-0.1,1.00,0,0.0,387,22.3,20.9,0,70,-1,0,0,0.00,0,0,-1,0,0,0,0.00,1,0,0.0,0,0,0,0,0,0,0,0.00,0,0,0.0,0,0,0,0,0,0.0,3.2,0,0,0.00,0,0,0,0,0.00,0,0,0,0,0,0,0,0,0,0,0,0,0,0,0,0,0,0,0,0,0,0,0,0,0,0,0,0,0,0,0,0,0,0.0,0.0,0.0,9.5,16.2,86.9,20.0,1000.0,0.0,0.0,0,1,15,25,129,154,0,0,0,0,0,13,0,0,0,0,0,0,0,0,0,0,0,0,0,0,0,0,0,0,0,0,0,0,0,0,0,0,0,0,0,0,0,0,0,0,0,0,0,0,0,0,0,0,0,0,0
2019/12/21,00:08:30,OFF,-0.1,1.00,0,0.0,387,22.3,20.9,0,70,-1,0,0,0.00,0,0,-1,0,0,0,0.00,0,0,0.0,0,0,0,0,0,0,0,0.00,0,0,0.0,0,0,0,0,0,0.0,3.2,0,0,0.00,0,0,0,0,0.00,0,0,0,0,0,0,0,0,0,0,0,0,0,0,0,0,0,0,0,0,0,0,0,0,0,0,0,0,0,0,0,0,0,0.0,0.0,0.0,9.5,16.2,86.9,20.0,1000.0,0.0,0.0,0,1,15,25,129,154,0,0,0,0,0,13,0,0,0,0,0,0,0,0,0,0,0,0,0,0,0,0,0,0,0,0,0,0,0,0,0,0,0,0,0,0,0,0,0,0,0,0,0,0,0,0,0,0,0,0,0
2019/12/21,00:08:40,OFF,-0.1,1.00,0,0.0,387,22.3,20.9,0,70,-1,0,0,0.00,0,0,-1,0,0,0,0.00,0,0,0.0,0,0,0,0,0,0,0,0.00,0,0,0.0,0,0,0,0,0,0.0,3.2,0,0,0.00,0,0,0,0,0.00,0,0,0,0,0,0,0,0,0,0,0,0,0,0,0,0,0,0,0,0,0,0,0,0,0,0,0,0,0,0,0,0,0,0.0,0.0,0.0,9.5,16.2,86.9,20.0,1000.0,0.0,0.0,0,1,15,25,129,154,0,0,0,0,0,14,0,0,0,0,0,0,0,0,0,0,0,0,0,0,0,0,0,0,0,0,0,0,0,0,0,0,0,0,0,0,0,0,0,0,0,0,0,0,0,0,0,0,0,0,0
2019/12/21,00:08:50,OFF,-0.1,1.00,0,0.0,387,22.3,20.9,0,70,-1,0,0,0.00,0,0,-1,0,0,0,0.00,1,0,0.0,0,0,0,0,0,0,0,0.00,0,0,0.0,0,0,0,0,0,0.0,3.2,0,0,0.00,0,0,0,0,0.00,0,0,0,0,0,0,0,0,0,0,0,0,0,0,0,0,0,0,0,0,0,0,0,0,0,0,0,0,0,0,0,0,0,0.0,0.0,0.0,9.5,16.2,86.9,20.0,1000.0,0.0,0.0,0,1,15,25,129,154,0,0,0,0,0,15,0,0,0,0,0,0,0,0,0,0,0,0,0,0,0,0,0,0,0,0,0,0,0,0,0,0,0,0,0,0,0,0,0,0,0,0,0,0,0,0,0,0,0,0,0
2019/12/21,00:09:00,OFF,-0.1,1.00,0,0.0,387,22.3,20.9,0,70,-1,0,0,0.00,0,0,-1,0,0,0,0.00,1,0,0.0,0,0,0,0,0,0,0,0.00,0,0,0.0,0,0,0,0,0,0.0,3.2,0,0,0.00,0,0,0,0,0.00,0,0,0,0,0,0,0,0,0,0,0,0,0,0,0,0,0,0,0,0,0,0,0,0,0,0,0,0,0,0,0,0,0,0.0,0.0,0.0,9.5,16.2,86.9,20.0,1000.0,0.0,0.0,0,1,15,25,129,154,0,0,0,0,0,15,0,0,0,0,0,0,0,0,0,0,0,0,0,0,0,0,0,0,0,0,0,0,0,0,0,0,0,0,0,0,0,0,0,0,0,0,0,0,0,0,0,0,0,0,0
2019/12/21,00:09:10,OFF,-0.1,1.00,0,0.0,387,22.3,20.9,0,70,-1,0,0,0.00,0,0,-1,0,0,0,0.00,1,0,0.0,0,0,0,0,0,0,0,0.00,0,0,0.0,0,0,0,0,0,0.0,3.2,0,0,0.00,0,0,0,0,0.00,0,0,0,0,0,0,0,0,0,0,0,0,0,0,0,0,0,0,0,0,0,0,0,0,0,0,0,0,0,0,0,0,0,0.0,0.0,0.0,9.5,16.2,86.9,20.0,1000.0,0.0,0.0,0,1,15,25,129,154,0,0,0,0,0,15,0,0,0,0,0,0,0,0,0,0,0,0,0,0,0,0,0,0,0,0,0,0,0,0,0,0,0,0,0,0,0,0,0,0,0,0,0,0,0,0,0,0,0,0,0
2019/12/21,00:09:20,OFF,-0.1,1.00,0,0.0,387,22.3,20.9,0,70,-1,0,0,0.00,0,0,-1,0,0,0,0.00,0,0,0.0,0,0,0,0,0,0,0,0.00,0,0,0.0,0,0,0,0,0,0.0,3.2,0,0,0.00,0,0,0,0,0.00,0,0,0,0,0,0,0,0,0,0,0,0,0,0,0,0,0,0,0,0,0,0,0,0,0,0,0,0,0,0,0,0,0,0.0,0.0,0.0,9.5,16.2,86.9,20.0,1000.0,0.0,0.0,0,1,15,25,129,154,0,0,0,0,0,14,0,0,0,0,0,0,0,0,0,0,0,0,0,0,0,0,0,0,0,0,0,0,0,0,0,0,0,0,0,0,0,0,0,0,0,0,0,0,0,0,0,0,0,0,0
2019/12/21,00:09:30,OFF,-0.1,1.00,0,0.0,387,22.3,20.9,0,70,-1,0,0,0.00,0,0,-1,0,0,0,0.00,1,0,0.0,0,0,0,0,0,0,0,0.00,0,0,0.0,0,0,0,0,0,0.0,3.2,0,0,0.00,0,0,0,0,0.00,0,0,0,0,0,0,0,0,0,0,0,0,0,0,0,0,0,0,0,0,0,0,0,0,0,0,0,0,0,0,0,0,0,0.0,0.0,0.0,9.5,16.2,86.9,20.0,1000.0,0.0,0.0,0,1,15,25,129,154,0,0,0,0,0,14,0,0,0,0,0,0,0,0,0,0,0,0,0,0,0,0,0,0,0,0,0,0,0,0,0,0,0,0,0,0,0,0,0,0,0,0,0,0,0,0,0,0,0,0,0
2019/12/21,00:09:40,OFF,-0.1,1.00,0,0.0,387,22.3,20.9,0,70,-1,0,0,0.00,0,0,-1,0,0,0,0.00,0,0,0.0,0,0,0,0,0,0,0,0.00,0,0,0.0,0,0,0,0,0,0.0,3.2,0,0,0.00,0,0,0,0,0.00,0,0,0,0,0,0,0,0,0,0,0,0,0,0,0,0,0,0,0,0,0,0,0,0,0,0,0,0,0,0,0,0,0,0.0,0.0,0.0,9.5,16.2,86.9,20.0,1000.0,0.0,0.0,0,1,15,25,129,154,0,0,0,0,0,14,0,0,0,0,0,0,0,0,0,0,0,0,0,0,0,0,0,0,0,0,0,0,0,0,0,0,0,0,0,0,0,0,0,0,0,0,0,0,0,0,0,0,0,0,0
2019/12/21,00:09:50,OFF,-0.1,1.00,0,0.0,387,22.3,20.9,0,70,-1,0,0,0.00,0,0,-1,0,0,0,0.00,1,0,0.0,0,0,0,0,0,0,0,0.00,0,0,0.0,0,0,0,0,0,0.0,3.2,0,0,0.00,0,0,0,0,0.00,0,0,0,0,0,0,0,0,0,0,0,0,0,0,0,0,0,0,0,0,0,0,0,0,0,0,0,0,0,0,0,0,0,0.0,0.0,0.0,9.5,16.2,86.9,20.0,1000.0,0.0,0.0,0,1,15,25,129,154,0,0,0,0,0,14,0,0,0,0,0,0,0,0,0,0,0,0,0,0,0,0,0,0,0,0,0,0,0,0,0,0,0,0,0,0,0,0,0,0,0,0,0,0,0,0,0,0,0,0,0
2019/12/21,00:10:00,OFF,-0.1,1.00,0,0.0,387,22.3,20.9,0,70,-1,0,0,0.00,0,0,-1,0,0,0,0.00,1,0,0.0,0,0,0,0,0,0,0,0.00,0,0,0.0,0,0,0,0,0,0.0,3.2,0,0,0.00,0,0,0,0,0.00,0,0,0,0,0,0,0,0,0,0,0,0,0,0,0,0,0,0,0,0,0,0,0,0,0,0,0,0,0,0,0,0,0,0.0,0.0,0.0,9.5,16.2,86.9,20.0,1000.0,0.0,0.0,0,1,15,25,129,154,0,0,0,0,0,14,0,0,0,0,0,0,0,0,0,0,0,0,0,0,0,0,0,0,0,0,0,0,0,0,0,0,0,0,0,0,0,0,0,0,0,0,0,0,0,0,0,0,0,0,0
2019/12/21,00:10:10,OFF,-0.1,1.00,0,0.0,387,22.3,20.9,0,70,-1,0,0,0.00,0,0,-1,0,0,0,0.00,1,0,0.0,0,0,0,0,0,0,0,0.00,0,0,0.0,0,0,0,0,0,0.0,3.2,0,0,0.00,0,0,0,0,0.00,0,0,0,0,0,0,0,0,0,0,0,0,0,0,0,0,0,0,0,0,0,0,0,0,0,0,0,0,0,0,0,0,0,0.0,0.0,0.0,9.5,16.2,86.9,20.0,1000.0,0.0,0.0,0,1,15,25,129,154,0,0,0,0,0,14,0,0,0,0,0,0,0,0,0,0,0,0,0,0,0,0,0,0,0,0,0,0,0,0,0,0,0,0,0,0,0,0,0,0,0,0,0,0,0,0,0,0,0,0,0
2019/12/21,00:10:20,OFF,-0.1,1.00,0,0.0,387,22.3,20.9,0,70,-1,0,0,0.00,0,0,-1,0,0,0,0.00,1,0,0.0,0,0,0,0,0,0,0,0.00,0,0,0.0,0,0,0,0,0,0.0,3.2,0,0,0.00,0,0,0,0,0.00,0,0,0,0,0,0,0,0,0,0,0,0,0,0,0,0,0,0,0,0,0,0,0,0,0,0,0,0,0,0,0,0,0,0.0,0.0,0.0,9.5,16.2,86.9,20.0,1000.0,0.0,0.0,0,1,15,25,129,154,0,0,0,0,0,14,0,0,0,0,0,0,0,0,0,0,0,0,0,0,0,0,0,0,0,0,0,0,0,0,0,0,0,0,0,0,0,0,0,0,0,0,0,0,0,0,0,0,0,0,0
2019/12/21,00:10:30,OFF,-0.1,1.00,0,0.0,387,22.3,20.9,0,70,-1,0,0,0.00,0,0,-1,0,0,0,0.00,1,0,0.0,0,0,0,0,0,0,0,0.00,0,0,0.0,0,0,0,0,0,0.0,3.2,0,0,0.00,0,0,0,0,0.00,0,0,0,0,0,0,0,0,0,0,0,0,0,0,0,0,0,0,0,0,0,0,0,0,0,0,0,0,0,0,0,0,0,0.0,0.0,0.0,9.5,16.2,86.9,20.0,1000.0,0.0,0.0,0,1,15,25,129,154,0,0,0,0,0,12,0,0,0,0,0,0,0,0,0,0,0,0,0,0,0,0,0,0,0,0,0,0,0,0,0,0,0,0,0,0,0,0,0,0,0,0,0,0,0,0,0,0,0,0,0
2019/12/21,00:10:40,OFF,-0.1,1.00,0,0.0,387,22.3,20.9,0,70,-1,0,0,0.00,0,0,-1,0,0,0,0.00,0,0,0.0,0,0,0,0,0,0,0,0.00,0,0,0.0,0,0,0,0,0,0.0,3.2,0,0,0.00,0,0,0,0,0.00,0,0,0,0,0,0,0,0,0,0,0,0,0,0,0,0,0,0,0,0,0,0,0,0,0,0,0,0,0,0,0,0,0,0.0,0.0,0.0,9.5,16.2,86.9,20.0,1000.0,0.0,0.0,0,1,15,25,129,154,0,0,0,0,0,12,0,0,0,0,0,0,0,0,0,0,0,0,0,0,0,0,0,0,0,0,0,0,0,0,0,0,0,0,0,0,0,0,0,0,0,0,0,0,0,0,0,0,0,0,0
2019/12/21,00:10:50,OFF,-0.1,1.00,0,0.0,387,22.3,20.9,0,70,-1,0,0,0.00,0,0,-1,0,0,0,0.00,1,0,0.0,0,0,0,0,0,0,0,0.00,0,0,0.0,0,0,0,0,0,0.0,3.2,0,0,0.00,0,0,0,0,0.00,0,0,0,0,0,0,0,0,0,0,0,0,0,0,0,0,0,0,0,0,0,0,0,0,0,0,0,0,0,0,0,0,0,0.0,0.0,0.0,9.5,16.2,86.9,20.0,1000.0,0.0,0.0,0,1,15,25,129,154,0,0,0,0,0,12,0,0,0,0,0,0,0,0,0,0,0,0,0,0,0,0,0,0,0,0,0,0,0,0,0,0,0,0,0,0,0,0,0,0,0,0,0,0,0,0,0,0,0,0,0
2019/12/21,00:11:00,OFF,-0.1,1.00,0,0.0,387,22.3,20.9,0,70,-1,0,0,0.00,0,0,-1,0,0,0,0.00,0,0,0.0,0,0,0,0,0,0,0,0.00,0,0,0.0,0,0,0,0,0,0.0,3.2,0,0,0.00,0,0,0,0,0.00,0,0,0,0,0,0,0,0,0,0,0,0,0,0,0,0,0,0,0,0,0,0,0,0,0,0,0,0,0,0,0,0,0,0.0,0.0,0.0,9.5,16.2,86.9,20.0,1000.0,0.0,0.0,0,1,15,25,129,154,0,0,0,0,0,12,0,0,0,0,0,0,0,0,0,0,0,0,0,0,0,0,0,0,0,0,0,0,0,0,0,0,0,0,0,0,0,0,0,0,0,0,0,0,0,0,0,0,0,0,0
2019/12/21,00:11:10,OFF,-0.1,1.00,0,0.0,387,22.3,20.9,0,70,-1,0,0,0.00,0,0,-1,0,0,0,0.00,1,0,0.0,0,0,0,0,0,0,0,0.00,0,0,0.0,0,0,0,0,0,0.0,3.2,0,0,0.00,0,0,0,0,0.00,0,0,0,0,0,0,0,0,0,0,0,0,0,0,0,0,0,0,0,0,0,0,0,0,0,0,0,0,0,0,0,0,0,0.0,0.0,0.0,9.5,16.2,86.9,20.0,1000.0,0.0,0.0,0,1,15,25,129,154,0,0,0,0,0,12,0,0,0,0,0,0,0,0,0,0,0,0,0,0,0,0,0,0,0,0,0,0,0,0,0,0,0,0,0,0,0,0,0,0,0,0,0,0,0,0,0,0,0,0,0
2019/12/21,00:11:20,OFF,-0.1,1.00,0,0.0,387,22.3,20.9,0,60,-1,0,0,0.00,0,0,-1,0,0,0,0.00,1,0,0.0,0,0,0,0,0,0,0,0.00,0,0,0.0,0,0,0,0,0,0.0,3.2,0,0,0.00,0,0,0,0,0.00,0,0,0,0,0,0,0,0,0,0,0,0,0,0,0,0,0,0,0,0,0,0,0,0,0,0,0,0,0,0,0,0,0,0.0,0.0,0.0,9.5,16.2,86.9,20.0,1000.0,0.0,0.0,0,1,15,25,129,154,0,0,0,0,0,12,0,0,0,0,0,0,0,0,0,0,0,0,0,0,0,0,0,0,0,0,0,0,0,0,0,0,0,0,0,0,0,0,0,0,0,0,0,0,0,0,0,0,0,0,0
2019/12/21,00:11:30,OFF,-0.1,1.00,0,0.0,373,22.3,20.9,0,70,-1,0,0,0.00,0,0,-1,0,0,0,0.00,0,0,0.0,0,0,0,0,0,0,0,0.00,0,0,0.0,0,0,0,0,0,0.0,3.2,0,0,0.00,0,0,0,0,0.00,0,0,0,0,0,0,0,0,0,0,0,0,0,0,0,0,0,0,0,0,0,0,0,0,0,0,0,0,0,0,0,0,0,0.0,0.0,0.0,9.5,16.2,86.9,20.0,1000.0,0.0,0.0,0,1,15,25,129,154,0,0,0,0,0,12,0,0,0,0,0,0,0,0,0,0,0,0,0,0,0,0,0,0,0,0,0,0,0,0,0,0,0,0,0,0,0,0,0,0,0,0,0,0,0,0,0,0,0,0,0
2019/12/21,00:11:40,OFF,-0.1,1.00,0,0.0,373,22.3,20.9,0,70,-1,0,0,0.00,0,0,-1,0,0,0,0.00,1,0,0.0,0,0,0,0,0,0,0,0.00,0,0,0.0,0,0,0,0,0,0.0,3.2,0,0,0.00,0,0,0,0,0.00,0,0,0,0,0,0,0,0,0,0,0,0,0,0,0,0,0,0,0,0,0,0,0,0,0,0,0,0,0,0,0,0,0,0.0,0.0,0.0,9.5,16.2,86.9,20.0,1000.0,0.0,0.0,0,1,15,25,129,154,0,0,0,0,0,12,0,0,0,0,0,0,0,0,0,0,0,0,0,0,0,0,0,0,0,0,0,0,0,0,0,0,0,0,0,0,0,0,0,0,0,0,0,0,0,0,0,0,0,0,0
2019/12/21,00:11:50,OFF,-0.1,1.00,0,0.0,387,22.3,20.9,0,70,-1,0,0,0.00,0,0,-1,0,0,0,0.00,1,0,0.0,0,0,0,0,0,0,0,0.00,0,0,0.0,0,0,0,0,0,0.0,3.2,0,0,0.00,0,0,0,0,0.00,0,0,0,0,0,0,0,0,0,0,0,0,0,0,0,0,0,0,0,0,0,0,0,0,0,0,0,0,0,0,0,0,0,0.0,0.0,0.0,9.5,16.2,86.9,20.0,1000.0,0.0,0.0,0,1,15,25,129,154,0,0,0,0,27,12,0,0,0,0,0,0,0,0,0,0,0,0,0,0,0,0,0,0,0,0,0,0,0,0,0,0,0,0,0,0,0,0,0,0,0,0,0,0,0,0,0,0,0,0,0
2019/12/21,00:12:00,OFF,-0.1,1.00,0,0.0,387,22.3,20.9,0,60,-1,0,0,0.00,0,0,-1,0,0,0,0.00,109,0,0.0,0,0,0,0,0,0,0,0.00,0,0,0.0,0,0,0,0,0,0.0,3.2,0,0,0.00,0,0,0,0,0.00,0,0,0,0,0,0,0,0,0,0,0,0,0,0,0,0,0,0,0,0,0,0,0,0,0,0,0,0,0,0,0,0,0,0.0,0.0,0.0,9.5,16.2,86.9,20.0,1000.0,0.0,0.0,0,1,15,25,129,154,0,0,0,0,0,14,0,0,0,0,0,0,0,0,0,0,0,0,0,0,0,0,0,0,0,0,0,0,0,0,0,0,0,0,0,0,0,0,0,0,0,0,0,0,0,0,0,0,0,0,0
2019/12/21,00:12:10,OFF,-0.1,1.00,0,0.0,387,22.3,20.9,0,60,-1,0,0,0.00,0,0,-1,0,0,0,0.00,475,0,0.0,0,0,0,0,0,0,0,0.00,0,0,0.0,0,0,0,0,0,0.0,3.2,0,0,0.00,0,0,0,0,0.00,0,0,0,0,0,0,0,0,0,0,0,0,0,0,0,0,0,0,0,0,0,0,0,0,0,0,0,0,0,0,0,0,0,0.0,0.0,0.0,9.5,16.2,86.9,20.0,1000.0,0.0,0.0,0,1,15,25,129,154,0,0,0,0,17,15,0,0,0,0,0,0,0,0,0,0,0,0,0,0,0,0,0,0,0,0,0,0,0,0,0,0,0,0,0,0,0,0,0,0,0,0,0,0,0,0,0,0,0,0,0
2019/12/21,00:12:20,OFF,-0.1,1.00,0,0.0,387,22.3,20.9,0,60,-1,0,0,0.00,0,0,-1,0,0,0,0.00,442,0,0.0,0,0,0,0,0,0,0,0.00,0,0,0.0,0,0,0,0,0,0.0,3.2,0,0,0.00,0,0,0,0,0.00,0,0,0,0,0,0,0,0,0,0,0,0,0,0,0,0,0,0,0,0,0,0,0,0,0,0,0,0,0,0,0,0,0,0.0,0.0,0.0,9.5,16.2,86.9,20.0,1000.0,0.0,0.0,0,1,15,25,129,154,0,0,0,0,17,14,0,0,0,0,0,0,0,0,0,0,0,0,0,0,0,0,0,0,0,0,0,0,0,0,0,0,0,0,0,0,0,0,0,0,0,0,0,0,0,0,0,0,0,0,0
2019/12/21,00:12:30,OFF,-0.1,1.00,0,0.0,387,22.3,20.9,0,70,-1,0,0,0.00,0,0,-1,0,0,0,0.00,442,0,0.0,0,0,0,0,0,0,0,0.00,0,0,0.0,0,0,0,0,0,0.0,3.2,0,0,0.00,0,0,0,0,0.00,0,0,0,0,0,0,0,0,0,0,0,0,0,0,0,0,0,0,0,0,0,0,0,0,0,0,0,0,0,0,0,0,0,0.0,0.0,0.0,9.5,16.2,86.9,20.0,1000.0,0.0,0.0,0,1,15,25,129,154,0,0,0,0,17,14,0,0,0,0,0,0,0,0,0,0,0,0,0,0,0,0,0,0,0,0,0,0,0,0,0,0,0,0,0,0,0,0,0,0,0,0,0,0,0,0,0,0,0,0,0
2019/12/21,00:12:40,OFF,-0.1,1.00,0,0.0,387,22.3,20.9,0,60,-1,0,0,0.00,0,0,-1,0,0,0,0.00,441,0,0.0,0,0,0,0,0,0,0,0.00,0,0,0.0,0,0,0,0,0,0.0,3.2,0,0,0.00,0,0,0,0,0.00,0,0,0,0,0,0,0,0,0,0,0,0,0,0,0,0,0,0,0,0,0,0,0,0,0,0,0,0,0,0,0,0,0,0.0,0.0,0.0,9.5,16.2,86.9,20.0,1000.0,0.0,0.0,0,1,15,25,129,154,0,0,0,0,17,14,0,0,0,0,0,0,0,0,0,0,0,0,0,0,0,0,0,0,0,0,0,0,0,0,0,0,0,0,0,0,0,0,0,0,0,0,0,0,0,0,0,0,0,0,0
2019/12/21,00:12:50,OFF,-0.1,1.00,0,0.0,387,22.3,20.9,0,60,-1,0,0,0.00,0,0,-1,0,0,0,0.00,442,0,0.0,0,0,0,0,0,0,0,0.00,0,0,0.0,0,0,0,0,0,0.0,3.2,0,0,0.00,0,0,0,0,0.00,0,0,0,0,0,0,0,0,0,0,0,0,0,0,0,0,0,0,0,0,0,0,0,0,0,0,0,0,0,0,0,0,0,0.0,0.0,0.0,9.5,16.2,86.9,20.0,1000.0,0.0,0.0,0,1,15,25,129,154,0,0,0,0,17,14,0,0,0,0,0,0,0,0,0,0,0,0,0,0,0,0,0,0,0,0,0,0,0,0,0,0,0,0,0,0,0,0,0,0,0,0,0,0,0,0,0,0,0,0,0
2019/12/21,00:13:00,OFF,-0.1,1.00,0,0.0,387,22.3,20.9,0,60,-1,0,0,0.00,0,0,-1,0,0,0,0.00,441,0,0.0,0,0,0,0,0,0,0,0.00,0,0,0.0,0,0,0,0,0,0.0,3.2,0,0,0.00,0,0,0,0,0.00,0,0,0,0,0,0,0,0,0,0,0,0,0,0,0,0,0,0,0,0,0,0,0,0,0,0,0,0,0,0,0,0,0,0.0,0.0,0.0,9.5,16.2,86.9,20.0,1000.0,0.0,0.0,0,1,15,25,129,154,0,0,0,0,17,14,0,0,0,0,0,0,0,0,0,0,0,0,0,0,0,0,0,0,0,0,0,0,0,0,0,0,0,0,0,0,0,0,0,0,0,0,0,0,0,0,0,0,0,0,0
2019/12/21,00:13:10,OFF,-0.1,1.00,0,0.0,387,22.3,20.9,0,60,-1,0,0,0.00,0,0,-1,0,0,0,0.00,441,0,0.0,0,0,0,0,0,0,0,0.00,0,0,0.0,0,0,0,0,0,0.0,3.2,0,0,0.00,0,0,0,0,0.00,0,0,0,0,0,0,0,0,0,0,0,0,0,0,0,0,0,0,0,0,0,0,0,0,0,0,0,0,0,0,0,0,0,0.0,0.0,0.0,9.5,16.2,86.9,20.0,1000.0,0.0,0.0,0,1,15,25,129,154,0,0,0,0,17,14,0,0,0,0,0,0,0,0,0,0,0,0,0,0,0,0,0,0,0,0,0,0,0,0,0,0,0,0,0,0,0,0,0,0,0,0,0,0,0,0,0,0,0,0,0
2019/12/21,00:13:20,OFF,-0.1,1.00,0,0.0,387,22.3,20.9,0,60,-1,0,0,0.00,0,0,-1,0,0,0,0.00,442,0,0.0,0,0,0,0,0,0,0,0.00,0,0,0.0,0,0,0,0,0,0.0,3.2,0,0,0.00,0,0,0,0,0.00,0,0,0,0,0,0,0,0,0,0,0,0,0,0,0,0,0,0,0,0,0,0,0,0,0,0,0,0,0,0,0,0,0,0.0,0.0,0.0,9.5,16.2,86.9,20.0,1000.0,0.0,0.0,0,1,15,25,129,154,0,0,0,0,16,14,0,0,0,0,0,0,0,0,0,0,0,0,0,0,0,0,0,0,0,0,0,0,0,0,0,0,0,0,0,0,0,0,0,0,0,0,0,0,0,0,0,0,0,0,0
2019/12/21,00:13:30,OFF,-0.1,1.00,0,0.0,387,22.3,20.9,0,60,-1,0,0,0.00,0,0,-1,0,0,0,0.00,442,0,0.0,0,0,0,0,0,0,0,0.00,0,0,0.0,0,0,0,0,0,0.0,3.2,0,0,0.00,0,0,0,0,0.00,0,0,0,0,0,0,0,0,0,0,0,0,0,0,0,0,0,0,0,0,0,0,0,0,0,0,0,0,0,0,0,0,0,0.0,0.0,0.0,9.5,16.2,86.9,20.0,1000.0,0.0,0.0,0,1,15,25,129,154,0,0,0,0,16,13,0,0,0,0,0,0,0,0,0,0,0,0,0,0,0,0,0,0,0,0,0,0,0,0,0,0,0,0,0,0,0,0,0,0,0,0,0,0,0,0,0,0,0,0,0
2019/12/21,00:13:40,OFF,-0.1,1.00,0,0.0,387,22.3,20.9,0,60,-1,0,0,0.00,0,0,-1,0,0,0,0.00,442,0,0.0,0,0,0,0,0,0,0,0.00,0,0,0.0,0,0,0,0,0,0.0,3.2,0,0,0.00,0,0,0,0,0.00,0,0,0,0,0,0,0,0,0,0,0,0,0,0,0,0,0,0,0,0,0,0,0,0,0,0,0,0,0,0,0,0,0,0.0,0.0,0.0,9.5,16.2,86.9,20.0,1000.0,0.0,0.0,0,1,15,25,129,154,0,0,0,0,17,12,0,0,0,0,0,0,0,0,0,0,0,0,0,0,0,0,0,0,0,0,0,0,0,0,0,0,0,0,0,0,0,0,0,0,0,0,0,0,0,0,0,0,0,0,0
2019/12/21,00:13:50,OFF,-0.1,1.00,0,0.0,387,22.3,20.9,0,60,-1,0,0,0.00,0,0,-1,0,0,0,0.00,442,0,0.0,0,0,0,0,0,0,0,0.00,0,0,0.0,0,0,0,0,0,0.0,3.2,0,0,0.00,0,0,0,0,0.00,0,0,0,0,0,0,0,0,0,0,0,0,0,0,0,0,0,0,0,0,0,0,0,0,0,0,0,0,0,0,0,0,0,0.0,0.0,0.0,9.5,16.2,86.9,20.0,1000.0,0.0,0.0,0,1,15,25,129,154,0,0,0,0,16,11,0,0,0,0,0,0,0,0,0,0,0,0,0,0,0,0,0,0,0,0,0,0,0,0,0,0,0,0,0,0,0,0,0,0,0,0,0,0,0,0,0,0,0,0,0
2019/12/21,00:14:00,OFF,-0.1,1.00,0,0.0,387,22.3,20.9,0,60,-1,0,0,0.00,0,0,-1,0,0,0,0.00,441,0,0.0,0,0,0,0,0,0,0,0.00,0,0,0.0,0,0,0,0,0,0.0,3.2,0,0,0.00,0,0,0,0,0.00,0,0,0,0,0,0,0,0,0,0,0,0,0,0,0,0,0,0,0,0,0,0,0,0,0,0,0,0,0,0,0,0,0,0.0,0.0,0.0,9.5,16.2,86.9,20.0,1000.0,0.0,0.0,0,1,15,25,129,154,0,0,0,0,16,12,0,0,0,0,0,0,0,0,0,0,0,0,0,0,0,0,0,0,0,0,0,0,0,0,0,0,0,0,0,0,0,0,0,0,0,0,0,0,0,0,0,0,0,0,0
2019/12/21,00:14:10,OFF,-0.1,1.00,0,0.0,387,22.3,20.9,0,60,-1,0,0,0.00,0,0,-1,0,0,0,0.00,443,0,0.0,0,0,0,0,0,0,0,0.00,0,0,0.0,0,0,0,0,0,0.0,3.2,0,0,0.00,0,0,0,0,0.00,0,0,0,0,0,0,0,0,0,0,0,0,0,0,0,0,0,0,0,0,0,0,0,0,0,0,0,0,0,0,0,0,0,0.0,0.0,0.0,9.5,16.2,86.9,20.0,1000.0,0.0,0.0,0,1,15,25,129,154,0,0,0,0,16,12,0,0,0,0,0,0,0,0,0,0,0,0,0,0,0,0,0,0,0,0,0,0,0,0,0,0,0,0,0,0,0,0,0,0,0,0,0,0,0,0,0,0,0,0,0
2019/12/21,00:14:20,OFF,-0.1,1.00,0,0.0,387,22.3,20.9,0,60,-1,0,0,0.00,0,0,-1,0,0,0,0.00,441,0,0.0,0,0,0,0,0,0,0,0.00,0,0,0.0,0,0,0,0,0,0.0,3.2,0,0,0.00,0,0,0,0,0.00,0,0,0,0,0,0,0,0,0,0,0,0,0,0,0,0,0,0,0,0,0,0,0,0,0,0,0,0,0,0,0,0,0,0.0,0.0,0.0,9.5,16.2,86.9,20.0,1000.0,0.0,0.0,0,1,15,25,129,154,0,0,0,0,16,11,0,0,0,0,0,0,0,0,0,0,0,0,0,0,0,0,0,0,0,0,0,0,0,0,0,0,0,0,0,0,0,0,0,0,0,0,0,0,0,0,0,0,0,0,0
2019/12/21,00:14:30,OFF,-0.1,1.00,0,0.0,387,22.3,20.9,0,60,-1,0,0,0.00,0,0,-1,0,0,0,0.00,442,0,0.0,0,0,0,0,0,0,0,0.00,0,0,0.0,0,0,0,0,0,0.0,3.2,0,0,0.00,0,0,0,0,0.00,0,0,0,0,0,0,0,0,0,0,0,0,0,0,0,0,0,0,0,0,0,0,0,0,0,0,0,0,0,0,0,0,0,0.0,0.0,0.0,9.5,16.2,86.9,20.0,1000.0,0.0,0.0,0,1,15,25,129,154,0,0,0,0,16,12,0,0,0,0,0,0,0,0,0,0,0,0,0,0,0,0,0,0,0,0,0,0,0,0,0,0,0,0,0,0,0,0,0,0,0,0,0,0,0,0,0,0,0,0,0
2019/12/21,00:14:40,OFF,-0.1,1.00,0,0.0,373,22.3,20.9,0,60,-1,0,0,0.00,0,0,-1,0,0,0,0.00,441,0,0.0,0,0,0,0,0,0,0,0.00,0,0,0.0,0,0,0,0,0,0.0,3.2,0,0,0.00,0,0,0,0,0.00,0,0,0,0,0,0,0,0,0,0,0,0,0,0,0,0,0,0,0,0,0,0,0,0,0,0,0,0,0,0,0,0,0,0.0,0.0,0.0,9.5,16.2,86.9,20.0,1000.0,0.0,0.0,0,1,15,25,129,154,0,0,0,0,16,12,0,0,0,0,0,0,0,0,0,0,0,0,0,0,0,0,0,0,0,0,0,0,0,0,0,0,0,0,0,0,0,0,0,0,0,0,0,0,0,0,0,0,0,0,0
2019/12/21,00:14:50,OFF,-0.1,1.00,0,0.0,387,22.3,20.9,0,60,-1,0,0,0.00,0,0,-1,0,0,0,0.00,442,0,0.0,0,0,0,0,0,0,0,0.00,0,0,0.0,0,0,0,0,0,0.0,3.2,0,0,0.00,0,0,0,0,0.00,0,0,0,0,0,0,0,0,0,0,0,0,0,0,0,0,0,0,0,0,0,0,0,0,0,0,0,0,0,0,0,0,0,0.0,0.0,0.0,9.5,16.2,86.9,20.0,1000.0,0.0,0.0,0,1,15,25,129,154,0,0,0,0,0,11,0,0,0,0,0,0,0,0,0,0,0,0,0,0,0,0,0,0,0,0,0,0,0,0,0,0,0,0,0,0,0,0,0,0,0,0,0,0,0,0,0,0,0,0,0
2019/12/21,00:15:00,OFF,-0.1,1.00,0,0.0,387,22.3,20.9,0,70,-1,0,0,0.00,0,0,-1,0,0,0,0.00,442,0,0.0,0,0,0,0,0,0,0,0.00,0,0,0.0,0,0,0,0,0,0.0,3.2,0,0,0.00,0,0,0,0,0.00,0,0,0,0,0,0,0,0,0,0,0,0,0,0,0,0,0,0,0,0,0,0,0,0,0,0,0,0,0,0,0,0,0,0.0,0.0,0.0,9.5,16.2,86.9,20.0,1000.0,0.0,0.0,0,1,15,25,129,154,0,0,0,0,16,12,0,0,0,0,0,0,0,0,0,0,0,0,0,0,0,0,0,0,0,0,0,0,0,0,0,0,0,0,0,0,0,0,0,0,0,0,0,0,0,0,0,0,0,0,0
2019/12/21,00:15:10,OFF,-0.1,1.00,0,0.0,387,22.3,20.9,0,60,-1,0,0,0.00,0,0,-1,0,0,0,0.00,442,0,0.0,0,0,0,0,0,0,0,0.00,0,0,0.0,0,0,0,0,0,0.0,3.2,0,0,0.00,0,0,0,0,0.00,0,0,0,0,0,0,0,0,0,0,0,0,0,0,0,0,0,0,0,0,0,0,0,0,0,0,0,0,0,0,0,0,0,0.0,0.0,0.0,9.5,16.2,86.9,20.0,1000.0,0.0,0.0,0,1,15,25,129,154,0,0,0,0,16,11,0,0,0,0,0,0,0,0,0,0,0,0,0,0,0,0,0,0,0,0,0,0,0,0,0,0,0,0,0,0,0,0,0,0,0,0,0,0,0,0,0,0,0,0,0
2019/12/21,00:15:20,OFF,-0.1,1.00,0,0.0,387,22.3,20.9,0,70,-1,0,0,0.00,0,0,-1,0,0,0,0.00,442,0,0.0,0,0,0,0,0,0,0,0.00,0,0,0.0,0,0,0,0,0,0.0,3.2,0,0,0.00,0,0,0,0,0.00,0,0,0,0,0,0,0,0,0,0,0,0,0,0,0,0,0,0,0,0,0,0,0,0,0,0,0,0,0,0,0,0,0,0.0,0.0,0.0,9.5,16.2,86.9,20.0,1000.0,0.0,0.0,0,1,15,25,129,154,0,0,0,0,16,11,0,0,0,0,0,0,0,0,0,0,0,0,0,0,0,0,0,0,0,0,0,0,0,0,0,0,0,0,0,0,0,0,0,0,0,0,0,0,0,0,0,0,0,0,0
2019/12/21,00:15:30,OFF,-0.1,1.00,0,0.0,387,22.3,20.9,0,60,-1,0,0,0.00,0,0,-1,0,0,0,0.00,441,0,0.0,0,0,0,0,0,0,0,0.00,0,0,0.0,0,0,0,0,0,0.0,3.2,0,0,0.00,0,0,0,0,0.00,0,0,0,0,0,0,0,0,0,0,0,0,0,0,0,0,0,0,0,0,0,0,0,0,0,0,0,0,0,0,0,0,0,0.0,0.0,0.0,9.5,16.2,86.9,20.0,1000.0,0.0,0.0,0,1,15,25,129,154,0,0,0,0,16,11,0,0,0,0,0,0,0,0,0,0,0,0,0,0,0,0,0,0,0,0,0,0,0,0,0,0,0,0,0,0,0,0,0,0,0,0,0,0,0,0,0,0,0,0,0
2019/12/21,00:15:40,OFF,-0.1,1.00,0,0.0,387,22.3,20.9,0,60,-1,0,0,0.00,0,0,-1,0,0,0,0.00,441,0,0.0,0,0,0,0,0,0,0,0.00,0,0,0.0,0,0,0,0,0,0.0,3.2,0,0,0.00,0,0,0,0,0.00,0,0,0,0,0,0,0,0,0,0,0,0,0,0,0,0,0,0,0,0,0,0,0,0,0,0,0,0,0,0,0,0,0,0.0,0.0,0.0,9.5,16.2,86.9,20.0,1000.0,0.0,0.0,0,1,15,25,129,154,0,0,0,0,16,12,0,0,0,0,0,0,0,0,0,0,0,0,0,0,0,0,0,0,0,0,0,0,0,0,0,0,0,0,0,0,0,0,0,0,0,0,0,0,0,0,0,0,0,0,0
2019/12/21,00:15:50,OFF,-0.1,1.00,0,0.0,387,22.3,20.9,0,70,-1,0,0,0.00,0,0,-1,0,0,0,0.00,442,0,0.0,0,0,0,0,0,0,0,0.00,0,0,0.0,0,0,0,0,0,0.0,3.2,0,0,0.00,0,0,0,0,0.00,0,0,0,0,0,0,0,0,0,0,0,0,0,0,0,0,0,0,0,0,0,0,0,0,0,0,0,0,0,0,0,0,0,0.0,0.0,0.0,9.5,16.2,86.9,20.0,1000.0,0.0,0.0,0,1,15,25,129,154,0,0,0,0,0,13,0,0,0,0,0,0,0,0,0,0,0,0,0,0,0,0,0,0,0,0,0,0,0,0,0,0,0,0,0,0,0,0,0,0,0,0,0,0,0,0,0,0,0,0,0
2019/12/21,00:16:00,OFF,-0.1,1.00,0,0.0,387,22.3,20.9,0,70,-1,0,0,0.00,0,0,-1,0,0,0,0.00,441,0,0.0,0,0,0,0,0,0,0,0.00,0,0,0.0,0,0,0,0,0,0.0,3.2,0,0,0.00,0,0,0,0,0.00,0,0,0,0,0,0,0,0,0,0,0,0,0,0,0,0,0,0,0,0,0,0,0,0,0,0,0,0,0,0,0,0,0,0.0,0.0,0.0,9.5,16.2,86.9,20.0,1000.0,0.0,0.0,0,1,15,25,129,154,0,0,0,0,16,12,0,0,0,0,0,0,0,0,0,0,0,0,0,0,0,0,0,0,0,0,0,0,0,0,0,0,0,0,0,0,0,0,0,0,0,0,0,0,0,0,0,0,0,0,0
2019/12/21,00:16:10,OFF,-0.1,1.00,0,0.0,387,22.3,20.9,0,70,-1,0,0,0.00,0,0,-1,0,0,0,0.00,442,0,0.0,0,0,0,0,0,0,0,0.00,0,0,0.0,0,0,0,0,0,0.0,3.2,0,0,0.00,0,0,0,0,0.00,0,0,0,0,0,0,0,0,0,0,0,0,0,0,0,0,0,0,0,0,0,0,0,0,0,0,0,0,0,0,0,0,0,0.0,0.0,0.0,9.5,16.2,86.9,20.0,1000.0,0.0,0.0,0,1,15,25,129,154,0,0,0,0,16,0,0,0,0,0,0,0,0,0,0,0,0,0,0,0,0,0,0,0,0,0,0,0,0,0,0,0,0,0,0,0,0,0,0,0,0,0,0,0,0,0,0,0,0,0,0
2019/12/21,00:16:20,OFF,-0.1,1.00,0,0.0,387,22.3,20.9,0,60,-1,0,0,0.00,0,0,-1,0,0,0,0.00,442,0,0.0,0,0,0,0,0,0,0,0.00,0,0,0.0,0,0,0,0,0,0.0,3.2,0,0,0.00,0,0,0,0,0.00,0,0,0,0,0,0,0,0,0,0,0,0,0,0,0,0,0,0,0,0,0,0,0,0,0,0,0,0,0,0,0,0,0,0.0,0.0,0.0,9.5,16.2,86.9,20.0,1000.0,0.0,0.0,0,1,15,25,129,154,0,0,0,0,16,12,0,0,0,0,0,0,0,0,0,0,0,0,0,0,0,0,0,0,0,0,0,0,0,0,0,0,0,0,0,0,0,0,0,0,0,0,0,0,0,0,0,0,0,0,0
2019/12/21,00:16:30,OFF,-0.1,1.00,0,0.0,387,22.3,20.9,0,60,-1,0,0,0.00,0,0,-1,0,0,0,0.00,441,0,0.0,0,0,0,0,0,0,0,0.00,0,0,0.0,0,0,0,0,0,0.0,3.2,0,0,0.00,0,0,0,0,0.00,0,0,0,0,0,0,0,0,0,0,0,0,0,0,0,0,0,0,0,0,0,0,0,0,0,0,0,0,0,0,0,0,0,0.0,0.0,0.0,9.5,16.2,86.9,20.0,1000.0,0.0,0.0,0,1,15,25,129,154,0,0,0,0,16,12,0,0,0,0,0,0,0,0,0,0,0,0,0,0,0,0,0,0,0,0,0,0,0,0,0,0,0,0,0,0,0,0,0,0,0,0,0,0,0,0,0,0,0,0,0
2019/12/21,00:16:40,OFF,-0.1,1.00,0,0.0,387,22.3,20.9,0,60,-1,0,0,0.00,0,0,-1,0,0,0,0.00,441,0,0.0,0,0,0,0,0,0,0,0.00,0,0,0.0,0,0,0,0,0,0.0,3.2,0,0,0.00,0,0,0,0,0.00,0,0,0,0,0,0,0,0,0,0,0,0,0,0,0,0,0,0,0,0,0,0,0,0,0,0,0,0,0,0,0,0,0,0.0,0.0,0.0,9.5,16.2,86.9,20.0,1000.0,0.0,0.0,0,1,15,25,129,154,0,0,0,0,16,12,0,0,0,0,0,0,0,0,0,0,0,0,0,0,0,0,0,0,0,0,0,0,0,0,0,0,0,0,0,0,0,0,0,0,0,0,0,0,0,0,0,0,0,0,0
2019/12/21,00:16:50,OFF,-0.1,1.00,0,0.0,387,22.3,20.9,0,60,-1,0,0,0.00,0,0,-1,0,0,0,0.00,441,0,0.0,0,0,0,0,0,0,0,0.00,0,0,0.0,0,0,0,0,0,0.0,3.2,0,0,0.00,0,0,0,0,0.00,0,0,0,0,0,0,0,0,0,0,0,0,0,0,0,0,0,0,0,0,0,0,0,0,0,0,0,0,0,0,0,0,0,0.0,0.0,0.0,9.5,16.2,86.9,20.0,1000.0,0.0,0.0,0,1,15,25,129,154,0,0,0,0,16,12,0,0,0,0,0,0,0,0,0,0,0,0,0,0,0,0,0,0,0,0,0,0,0,0,0,0,0,0,0,0,0,0,0,0,0,0,0,0,0,0,0,0,0,0,0
2019/12/21,00:17:00,OFF,-0.1,1.00,0,0.0,387,22.3,20.9,0,60,-1,0,0,0.00,0,0,-1,0,0,0,0.00,441,0,0.0,0,0,0,0,0,0,0,0.00,0,0,0.0,0,0,0,0,0,0.0,3.2,0,0,0.00,0,0,0,0,0.00,0,0,0,0,0,0,0,0,0,0,0,0,0,0,0,0,0,0,0,0,0,0,0,0,0,0,0,0,0,0,0,0,0,0.0,0.0,0.0,9.5,16.2,86.9,20.0,1000.0,0.0,0.0,0,1,15,25,129,154,0,0,0,0,16,12,0,0,0,0,0,0,0,0,0,0,0,0,0,0,0,0,0,0,0,0,0,0,0,0,0,0,0,0,0,0,0,0,0,0,0,0,0,0,0,0,0,0,0,0,0
2019/12/21,00:17:10,OFF,-0.1,1.00,0,0.0,387,22.3,20.9,0,60,-1,0,0,0.00,0,0,-1,0,0,0,0.00,442,0,0.0,0,0,0,0,0,0,0,0.00,0,0,0.0,0,0,0,0,0,0.0,3.2,0,0,0.00,0,0,0,0,0.00,0,0,0,0,0,0,0,0,0,0,0,0,0,0,0,0,0,0,0,0,0,0,0,0,0,0,0,0,0,0,0,0,0,0.0,0.0,0.0,9.5,16.2,86.9,20.0,1000.0,0.0,0.0,0,1,15,25,129,154,0,0,0,0,16,11,0,0,0,0,0,0,0,0,0,0,0,0,0,0,0,0,0,0,0,0,0,0,0,0,0,0,0,0,0,0,0,0,0,0,0,0,0,0,0,0,0,0,0,0,0
2019/12/21,00:17:20,OFF,-0.1,1.00,0,0.0,387,22.3,20.9,0,70,-1,0,0,0.00,0,0,-1,0,0,0,0.00,442,0,0.0,0,0,0,0,0,0,0,0.00,0,0,0.0,0,0,0,0,0,0.0,3.2,0,0,0.00,0,0,0,0,0.00,0,0,0,0,0,0,0,0,0,0,0,0,0,0,0,0,0,0,0,0,0,0,0,0,0,0,0,0,0,0,0,0,0,0.0,0.0,0.0,9.5,16.2,86.9,20.0,1000.0,0.0,0.0,0,1,15,25,129,154,0,0,0,0,16,11,0,0,0,0,0,0,0,0,0,0,0,0,0,0,0,0,0,0,0,0,0,0,0,0,0,0,0,0,0,0,0,0,0,0,0,0,0,0,0,0,0,0,0,0,0
2019/12/21,00:17:30,OFF,-0.1,1.00,0,0.0,387,22.3,20.9,0,60,-1,0,0,0.00,0,0,-1,0,0,0,0.00,441,0,0.0,0,0,0,0,0,0,0,0.00,0,0,0.0,0,0,0,0,0,0.0,3.2,0,0,0.00,0,0,0,0,0.00,0,0,0,0,0,0,0,0,0,0,0,0,0,0,0,0,0,0,0,0,0,0,0,0,0,0,0,0,0,0,0,0,0,0.0,0.0,0.0,9.5,16.2,86.9,20.0,1000.0,0.0,0.0,0,1,15,25,129,154,0,0,0,0,16,11,0,0,0,0,0,0,0,0,0,0,0,0,0,0,0,0,0,0,0,0,0,0,0,0,0,0,0,0,0,0,0,0,0,0,0,0,0,0,0,0,0,0,0,0,0
2019/12/21,00:17:40,OFF,-0.1,1.00,0,0.0,387,22.3,20.9,0,60,-1,0,0,0.00,0,0,-1,0,0,0,0.00,441,0,0.0,0,0,0,0,0,0,0,0.00,0,0,0.0,0,0,0,0,0,0.0,3.2,0,0,0.00,0,0,0,0,0.00,0,0,0,0,0,0,0,0,0,0,0,0,0,0,0,0,0,0,0,0,0,0,0,0,0,0,0,0,0,0,0,0,0,0.0,0.0,0.0,9.5,16.2,86.9,20.0,1000.0,0.0,0.0,0,1,15,25,129,154,0,0,0,0,16,11,0,0,0,0,0,0,0,0,0,0,0,0,0,0,0,0,0,0,0,0,0,0,0,0,0,0,0,0,0,0,0,0,0,0,0,0,0,0,0,0,0,0,0,0,0
2019/12/21,00:17:50,OFF,-0.1,1.00,0,0.0,387,22.3,20.9,0,60,-1,0,0,0.00,0,0,-1,0,0,0,0.00,442,0,0.0,0,0,0,0,0,0,0,0.00,0,0,0.0,0,0,0,0,0,0.0,3.2,0,0,0.00,0,0,0,0,0.00,0,0,0,0,0,0,0,0,0,0,0,0,0,0,0,0,0,0,0,0,0,0,0,0,0,0,0,0,0,0,0,0,0,0.0,0.0,0.0,9.5,16.2,86.9,20.0,1000.0,0.0,0.0,0,1,15,25,129,154,0,0,0,0,16,11,0,0,0,0,0,0,0,0,0,0,0,0,0,0,0,0,0,0,0,0,0,0,0,0,0,0,0,0,0,0,0,0,0,0,0,0,0,0,0,0,0,0,0,0,0
2019/12/21,00:18:00,OFF,-0.1,1.00,0,0.0,387,22.3,20.9,0,60,-1,0,0,0.00,0,0,-1,0,0,0,0.00,441,0,0.0,0,0,0,0,0,0,0,0.00,0,0,0.0,0,0,0,0,0,0.0,3.2,0,0,0.00,0,0,0,0,0.00,0,0,0,0,0,0,0,0,0,0,0,0,0,0,0,0,0,0,0,0,0,0,0,0,0,0,0,0,0,0,0,0,0,0.0,0.0,0.0,9.5,16.2,86.9,20.0,1000.0,0.0,0.0,0,1,15,25,129,154,0,0,0,0,16,11,0,0,0,0,0,0,0,0,0,0,0,0,0,0,0,0,0,0,0,0,0,0,0,0,0,0,0,0,0,0,0,0,0,0,0,0,0,0,0,0,0,0,0,0,0
2019/12/21,00:18:10,OFF,-0.1,1.00,0,0.0,387,22.3,20.9,0,60,-1,0,0,0.00,0,0,-1,0,0,0,0.00,442,0,0.0,0,0,0,0,0,0,0,0.00,0,0,0.0,0,0,0,0,0,0.0,3.2,0,0,0.00,0,0,0,0,0.00,0,0,0,0,0,0,0,0,0,0,0,0,0,0,0,0,0,0,0,0,0,0,0,0,0,0,0,0,0,0,0,0,0,0.0,0.0,0.0,9.5,16.2,86.9,20.0,1000.0,0.0,0.0,0,1,15,25,129,154,0,0,0,0,15,11,0,0,0,0,0,0,0,0,0,0,0,0,0,0,0,0,0,0,0,0,0,0,0,0,0,0,0,0,0,0,0,0,0,0,0,0,0,0,0,0,0,0,0,0,0
2019/12/21,00:18:20,OFF,-0.1,1.00,0,0.0,387,22.3,20.9,0,60,-1,0,0,0.00,0,0,-1,0,0,0,0.00,441,0,0.0,0,0,0,0,0,0,0,0.00,0,0,0.0,0,0,0,0,0,0.0,3.2,0,0,0.00,0,0,0,0,0.00,0,0,0,0,0,0,0,0,0,0,0,0,0,0,0,0,0,0,0,0,0,0,0,0,0,0,0,0,0,0,0,0,0,0.0,0.0,0.0,9.5,16.2,86.9,20.0,1000.0,0.0,0.0,0,1,15,25,129,154,0,0,0,0,15,11,0,0,0,0,0,0,0,0,0,0,0,0,0,0,0,0,0,0,0,0,0,0,0,0,0,0,0,0,0,0,0,0,0,0,0,0,0,0,0,0,0,0,0,0,0
2019/12/21,00:18:30,OFF,-0.1,1.00,0,0.0,387,22.3,20.9,0,60,-1,0,0,0.00,0,0,-1,0,0,0,0.00,442,0,0.0,0,0,0,0,0,0,0,0.00,0,0,0.0,0,0,0,0,0,0.0,3.2,0,0,0.00,0,0,0,0,0.00,0,0,0,0,0,0,0,0,0,0,0,0,0,0,0,0,0,0,0,0,0,0,0,0,0,0,0,0,0,0,0,0,0,0.0,0.0,0.0,9.5,16.2,86.9,20.0,1000.0,0.0,0.0,0,1,15,25,129,154,0,0,0,0,16,11,0,0,0,0,0,0,0,0,0,0,0,0,0,0,0,0,0,0,0,0,0,0,0,0,0,0,0,0,0,0,0,0,0,0,0,0,0,0,0,0,0,0,0,0,0
2019/12/21,00:18:40,OFF,-0.1,1.00,0,0.0,387,22.3,20.9,0,60,-1,0,0,0.00,0,0,-1,0,0,0,0.00,442,0,0.0,0,0,0,0,0,0,0,0.00,0,0,0.0,0,0,0,0,0,0.0,3.2,0,0,0.00,0,0,0,0,0.00,0,0,0,0,0,0,0,0,0,0,0,0,0,0,0,0,0,0,0,0,0,0,0,0,0,0,0,0,0,0,0,0,0,0.0,0.0,0.0,9.5,16.2,86.9,20.0,1000.0,0.0,0.0,0,1,15,25,129,154,0,0,0,0,16,11,0,0,0,0,0,0,0,0,0,0,0,0,0,0,0,0,0,0,0,0,0,0,0,0,0,0,0,0,0,0,0,0,0,0,0,0,0,0,0,0,0,0,0,0,0
2019/12/21,00:18:50,OFF,-0.1,1.00,0,0.0,387,22.3,20.9,0,60,-1,0,0,0.00,0,0,-1,0,0,0,0.00,442,0,0.0,0,0,0,0,0,0,0,0.00,0,0,0.0,0,0,0,0,0,0.0,3.2,0,0,0.00,0,0,0,0,0.00,0,0,0,0,0,0,0,0,0,0,0,0,0,0,0,0,0,0,0,0,0,0,0,0,0,0,0,0,0,0,0,0,0,0.0,0.0,0.0,9.5,16.2,86.9,20.0,1000.0,0.0,0.0,0,1,15,25,129,154,0,0,0,0,15,11,0,0,0,0,0,0,0,0,0,0,0,0,0,0,0,0,0,0,0,0,0,0,0,0,0,0,0,0,0,0,0,0,0,0,0,0,0,0,0,0,0,0,0,0,0
2019/12/21,00:19:00,OFF,-0.1,1.00,0,0.0,387,22.3,20.9,0,60,-1,0,0,0.00,0,0,-1,0,0,0,0.00,441,0,0.0,0,0,0,0,0,0,0,0.00,0,0,0.0,0,0,0,0,0,0.0,3.2,0,0,0.00,0,0,0,0,0.00,0,0,0,0,0,0,0,0,0,0,0,0,0,0,0,0,0,0,0,0,0,0,0,0,0,0,0,0,0,0,0,0,0,0.0,0.0,0.0,9.5,16.2,86.9,20.0,1000.0,0.0,0.0,0,1,15,25,129,154,0,0,0,0,16,11,0,0,0,0,0,0,0,0,0,0,0,0,0,0,0,0,0,0,0,0,0,0,0,0,0,0,0,0,0,0,0,0,0,0,0,0,0,0,0,0,0,0,0,0,0
2019/12/21,00:19:10,OFF,-0.1,1.00,0,0.0,387,22.3,20.9,0,60,-1,0,0,0.00,0,0,-1,0,0,0,0.00,441,0,0.0,0,0,0,0,0,0,0,0.00,0,0,0.0,0,0,0,0,0,0.0,3.2,0,0,0.00,0,0,0,0,0.00,0,0,0,0,0,0,0,0,0,0,0,0,0,0,0,0,0,0,0,0,0,0,0,0,0,0,0,0,0,0,0,0,0,0.0,0.0,0.0,9.5,16.2,86.9,20.0,1000.0,0.0,0.0,0,1,15,25,129,154,0,0,0,0,15,11,0,0,0,0,0,0,0,0,0,0,0,0,0,0,0,0,0,0,0,0,0,0,0,0,0,0,0,0,0,0,0,0,0,0,0,0,0,0,0,0,0,0,0,0,0
2019/12/21,00:19:20,OFF,-0.1,1.00,0,0.0,387,22.3,20.9,0,60,-1,0,0,0.00,0,0,-1,0,0,0,0.00,441,0,0.0,0,0,0,0,0,0,0,0.00,0,0,0.0,0,0,0,0,0,0.0,3.2,0,0,0.00,0,0,0,0,0.00,0,0,0,0,0,0,0,0,0,0,0,0,0,0,0,0,0,0,0,0,0,0,0,0,0,0,0,0,0,0,0,0,0,0.0,0.0,0.0,9.5,16.2,86.9,20.0,1000.0,0.0,0.0,0,1,15,25,129,154,0,0,0,0,15,11,0,0,0,0,0,0,0,0,0,0,0,0,0,0,0,0,0,0,0,0,0,0,0,0,0,0,0,0,0,0,0,0,0,0,0,0,0,0,0,0,0,0,0,0,0
2019/12/21,00:19:30,OFF,-0.1,1.00,0,0.0,387,22.3,20.9,0,60,-1,0,0,0.00,0,0,-1,0,0,0,0.00,442,0,0.0,0,0,0,0,0,0,0,0.00,0,0,0.0,0,0,0,0,0,0.0,3.2,0,0,0.00,0,0,0,0,0.00,0,0,0,0,0,0,0,0,0,0,0,0,0,0,0,0,0,0,0,0,0,0,0,0,0,0,0,0,0,0,0,0,0,0.0,0.0,0.0,9.5,16.2,86.9,20.0,1000.0,0.0,0.0,0,1,15,25,129,154,0,0,0,0,15,11,0,0,0,0,0,0,0,0,0,0,0,0,0,0,0,0,0,0,0,0,0,0,0,0,0,0,0,0,0,0,0,0,0,0,0,0,0,0,0,0,0,0,0,0,0
2019/12/21,00:19:40,OFF,-0.1,1.00,0,0.0,387,22.3,20.9,0,60,-1,0,0,0.00,0,0,-1,0,0,0,0.00,442,0,0.0,0,0,0,0,0,0,0,0.00,0,0,0.0,0,0,0,0,0,0.0,3.2,0,0,0.00,0,0,0,0,0.00,0,0,0,0,0,0,0,0,0,0,0,0,0,0,0,0,0,0,0,0,0,0,0,0,0,0,0,0,0,0,0,0,0,0.0,0.0,0.0,9.5,16.2,86.9,20.0,1000.0,0.0,0.0,0,1,15,25,129,154,0,0,0,0,15,11,0,0,0,0,0,0,0,0,0,0,0,0,0,0,0,0,0,0,0,0,0,0,0,0,0,0,0,0,0,0,0,0,0,0,0,0,0,0,0,0,0,0,0,0,0
2019/12/21,00:19:50,OFF,-0.1,1.00,0,0.0,387,22.3,20.9,0,60,-1,0,0,0.00,0,0,-1,0,0,0,0.00,441,0,0.0,0,0,0,0,0,0,0,0.00,0,0,0.0,0,0,0,0,0,0.0,3.2,0,0,0.00,0,0,0,0,0.00,0,0,0,0,0,0,0,0,0,0,0,0,0,0,0,0,0,0,0,0,0,0,0,0,0,0,0,0,0,0,0,0,0,0.0,0.0,0.0,9.5,16.2,86.9,20.0,1000.0,0.0,0.0,0,1,15,25,129,154,0,0,0,0,15,12,0,0,0,0,0,0,0,0,0,0,0,0,0,0,0,0,0,0,0,0,0,0,0,0,0,0,0,0,0,0,0,0,0,0,0,0,0,0,0,0,0,0,0,0,0
2019/12/21,00:20:00,OFF,-0.1,1.00,0,0.0,387,22.3,20.9,0,70,-1,0,0,0.00,0,0,-1,0,0,0,0.00,441,0,0.0,0,0,0,0,0,0,0,0.00,0,0,0.0,0,0,0,0,0,0.0,3.2,0,0,0.00,0,0,0,0,0.00,0,0,0,0,0,0,0,0,0,0,0,0,0,0,0,0,0,0,0,0,0,0,0,0,0,0,0,0,0,0,0,0,0,0.0,0.0,0.0,9.5,16.2,86.9,20.0,1000.0,0.0,0.0,0,1,15,25,129,154,0,0,0,0,15,12,0,0,0,0,0,0,0,0,0,0,0,0,0,0,0,0,0,0,0,0,0,0,0,0,0,0,0,0,0,0,0,0,0,0,0,0,0,0,0,0,0,0,0,0,0
2019/12/21,00:20:10,OFF,-0.1,1.00,0,0.0,387,22.3,20.9,0,60,-1,0,0,0.00,0,0,-1,0,0,0,0.00,442,0,0.0,0,0,0,0,0,0,0,0.00,0,0,0.0,0,0,0,0,0,0.0,3.2,0,0,0.00,0,0,0,0,0.00,0,0,0,0,0,0,0,0,0,0,0,0,0,0,0,0,0,0,0,0,0,0,0,0,0,0,0,0,0,0,0,0,0,0.0,0.0,0.0,9.5,16.2,86.9,20.0,1000.0,0.0,0.0,0,1,15,25,129,154,0,0,0,0,15,12,0,0,0,0,0,0,0,0,0,0,0,0,0,0,0,0,0,0,0,0,0,0,0,0,0,0,0,0,0,0,0,0,0,0,0,0,0,0,0,0,0,0,0,0,0
2019/12/21,00:20:20,OFF,-0.1,1.00,0,0.0,387,22.3,20.9,0,60,-1,0,0,0.00,0,0,-1,0,0,0,0.00,441,0,0.0,0,0,0,0,0,0,0,0.00,0,0,0.0,0,0,0,0,0,0.0,3.2,0,0,0.00,0,0,0,0,0.00,0,0,0,0,0,0,0,0,0,0,0,0,0,0,0,0,0,0,0,0,0,0,0,0,0,0,0,0,0,0,0,0,0,0.0,0.0,0.0,9.5,16.2,86.9,20.0,1000.0,0.0,0.0,0,1,15,25,129,154,0,0,0,0,15,12,0,0,0,0,0,0,0,0,0,0,0,0,0,0,0,0,0,0,0,0,0,0,0,0,0,0,0,0,0,0,0,0,0,0,0,0,0,0,0,0,0,0,0,0,0
2019/12/21,00:20:30,OFF,-0.1,1.00,0,0.0,387,22.3,20.9,0,60,-1,0,0,0.00,0,0,-1,0,0,0,0.00,442,0,0.0,0,0,0,0,0,0,0,0.00,0,0,0.0,0,0,0,0,0,0.0,3.2,0,0,0.00,0,0,0,0,0.00,0,0,0,0,0,0,0,0,0,0,0,0,0,0,0,0,0,0,0,0,0,0,0,0,0,0,0,0,0,0,0,0,0,0.0,0.0,0.0,9.5,16.2,86.9,20.0,1000.0,0.0,0.0,0,1,15,25,129,154,0,0,0,0,15,12,0,0,0,0,0,0,0,0,0,0,0,0,0,0,0,0,0,0,0,0,0,0,0,0,0,0,0,0,0,0,0,0,0,0,0,0,0,0,0,0,0,0,0,0,0
2019/12/21,00:20:40,OFF,-0.1,1.00,0,0.0,387,22.3,20.9,0,70,-1,0,0,0.00,0,0,-1,0,0,0,0.00,441,0,0.0,0,0,0,0,0,0,0,0.00,0,0,0.0,0,0,0,0,0,0.0,3.2,0,0,0.00,0,0,0,0,0.00,0,0,0,0,0,0,0,0,0,0,0,0,0,0,0,0,0,0,0,0,0,0,0,0,0,0,0,0,0,0,0,0,0,0.0,0.0,0.0,9.5,16.2,86.9,20.0,1000.0,0.0,0.0,0,1,15,25,129,154,0,0,0,0,15,12,0,0,0,0,0,0,0,0,0,0,0,0,0,0,0,0,0,0,0,0,0,0,0,0,0,0,0,0,0,0,0,0,0,0,0,0,0,0,0,0,0,0,0,0,0
2019/12/21,00:20:50,OFF,-0.1,1.00,0,0.0,387,22.3,20.9,0,60,-1,0,0,0.00,0,0,-1,0,0,0,0.00,442,0,0.0,0,0,0,0,0,0,0,0.00,0,0,0.0,0,0,0,0,0,0.0,3.2,0,0,0.00,0,0,0,0,0.00,0,0,0,0,0,0,0,0,0,0,0,0,0,0,0,0,0,0,0,0,0,0,0,0,0,0,0,0,0,0,0,0,0,0.0,0.0,0.0,9.5,16.2,86.9,20.0,1000.0,0.0,0.0,0,1,15,25,129,154,0,0,0,0,15,12,0,0,0,0,0,0,0,0,0,0,0,0,0,0,0,0,0,0,0,0,0,0,0,0,0,0,0,0,0,0,0,0,0,0,0,0,0,0,0,0,0,0,0,0,0
2019/12/21,00:21:00,OFF,-0.1,1.00,0,0.0,387,22.3,20.9,0,60,-1,0,0,0.00,0,0,-1,0,0,0,0.00,442,0,0.0,0,0,0,0,0,0,0,0.00,0,0,0.0,0,0,0,0,0,0.0,3.2,0,0,0.00,0,0,0,0,0.00,0,0,0,0,0,0,0,0,0,0,0,0,0,0,0,0,0,0,0,0,0,0,0,0,0,0,0,0,0,0,0,0,0,0.0,0.0,0.0,9.5,16.2,86.9,20.0,1000.0,0.0,0.0,0,1,15,25,129,154,0,0,0,0,15,12,0,0,0,0,0,0,0,0,0,0,0,0,0,0,0,0,0,0,0,0,0,0,0,0,0,0,0,0,0,0,0,0,0,0,0,0,0,0,0,0,0,0,0,0,0
2019/12/21,00:21:10,OFF,-0.1,1.00,0,0.0,387,22.3,20.9,0,60,-1,0,0,0.00,0,0,-1,0,0,0,0.00,442,0,0.0,0,0,0,0,0,0,0,0.00,0,0,0.0,0,0,0,0,0,0.0,3.2,0,0,0.00,0,0,0,0,0.00,0,0,0,0,0,0,0,0,0,0,0,0,0,0,0,0,0,0,0,0,0,0,0,0,0,0,0,0,0,0,0,0,0,0.0,0.0,0.0,9.5,16.2,86.9,20.0,1000.0,0.0,0.0,0,1,15,25,129,154,0,0,0,0,15,11,0,0,0,0,0,0,0,0,0,0,0,0,0,0,0,0,0,0,0,0,0,0,0,0,0,0,0,0,0,0,0,0,0,0,0,0,0,0,0,0,0,0,0,0,0
2019/12/21,00:21:20,OFF,-0.1,1.00,0,0.0,387,22.3,20.9,0,60,-1,0,0,0.00,0,0,-1,0,0,0,0.00,442,0,0.0,0,0,0,0,0,0,0,0.00,0,0,0.0,0,0,0,0,0,0.0,3.2,0,0,0.00,0,0,0,0,0.00,0,0,0,0,0,0,0,0,0,0,0,0,0,0,0,0,0,0,0,0,0,0,0,0,0,0,0,0,0,0,0,0,0,0.0,0.0,0.0,9.5,16.2,86.9,20.0,1000.0,0.0,0.0,0,1,15,25,129,154,0,0,0,0,15,11,0,0,0,0,0,0,0,0,0,0,0,0,0,0,0,0,0,0,0,0,0,0,0,0,0,0,0,0,0,0,0,0,0,0,0,0,0,0,0,0,0,0,0,0,0
2019/12/21,00:21:30,OFF,-0.1,1.00,0,0.0,387,22.3,20.9,0,60,-1,0,0,0.00,0,0,-1,0,0,0,0.00,441,0,0.0,0,0,0,0,0,0,0,0.00,0,0,0.0,0,0,0,0,0,0.0,3.2,0,0,0.00,0,0,0,0,0.00,0,0,0,0,0,0,0,0,0,0,0,0,0,0,0,0,0,0,0,0,0,0,0,0,0,0,0,0,0,0,0,0,0,0.0,0.0,0.0,9.5,16.2,86.9,20.0,1000.0,0.0,0.0,0,1,15,25,129,154,0,0,0,0,15,11,0,0,0,0,0,0,0,0,0,0,0,0,0,0,0,0,0,0,0,0,0,0,0,0,0,0,0,0,0,0,0,0,0,0,0,0,0,0,0,0,0,0,0,0,0
2019/12/21,00:21:40,OFF,-0.1,1.00,0,0.0,387,22.3,20.9,0,70,-1,0,0,0.00,0,0,-1,0,0,0,0.00,442,0,0.0,0,0,0,0,0,0,0,0.00,0,0,0.0,0,0,0,0,0,0.0,3.2,0,0,0.00,0,0,0,0,0.00,0,0,0,0,0,0,0,0,0,0,0,0,0,0,0,0,0,0,0,0,0,0,0,0,0,0,0,0,0,0,0,0,0,0.0,0.0,0.0,9.5,16.2,86.9,20.0,1000.0,0.0,0.0,0,1,15,25,129,154,0,0,0,0,15,11,0,0,0,0,0,0,0,0,0,0,0,0,0,0,0,0,0,0,0,0,0,0,0,0,0,0,0,0,0,0,0,0,0,0,0,0,0,0,0,0,0,0,0,0,0
2019/12/21,00:21:50,OFF,-0.1,1.00,0,0.0,387,22.3,20.9,0,60,-1,0,0,0.00,0,0,-1,0,0,0,0.00,441,0,0.0,0,0,0,0,0,0,0,0.00,0,0,0.0,0,0,0,0,0,0.0,3.2,0,0,0.00,0,0,0,0,0.00,0,0,0,0,0,0,0,0,0,0,0,0,0,0,0,0,0,0,0,0,0,0,0,0,0,0,0,0,0,0,0,0,0,0.0,0.0,0.0,9.5,16.2,86.9,20.0,1000.0,0.0,0.0,0,1,15,25,129,154,0,0,0,0,15,11,0,0,0,0,0,0,0,0,0,0,0,0,0,0,0,0,0,0,0,0,0,0,0,0,0,0,0,0,0,0,0,0,0,0,0,0,0,0,0,0,0,0,0,0,0
2019/12/21,00:22:00,OFF,-0.1,1.00,0,0.0,387,22.3,20.9,0,60,-1,0,0,0.00,0,0,-1,0,0,0,0.00,442,0,0.0,0,0,0,0,0,0,0,0.00,0,0,0.0,0,0,0,0,0,0.0,3.2,0,0,0.00,0,0,0,0,0.00,0,0,0,0,0,0,0,0,0,0,0,0,0,0,0,0,0,0,0,0,0,0,0,0,0,0,0,0,0,0,0,0,0,0.0,0.0,0.0,9.5,16.2,86.9,20.0,1000.0,0.0,0.0,0,1,15,25,129,154,0,0,0,0,15,11,0,0,0,0,0,0,0,0,0,0,0,0,0,0,0,0,0,0,0,0,0,0,0,0,0,0,0,0,0,0,0,0,0,0,0,0,0,0,0,0,0,0,0,0,0
2019/12/21,00:22:10,OFF,-0.1,1.00,0,0.0,387,22.3,20.9,0,60,-1,0,0,0.00,0,0,-1,0,0,0,0.00,442,0,0.0,0,0,0,0,0,0,0,0.00,0,0,0.0,0,0,0,0,0,0.0,3.2,0,0,0.00,0,0,0,0,0.00,0,0,0,0,0,0,0,0,0,0,0,0,0,0,0,0,0,0,0,0,0,0,0,0,0,0,0,0,0,0,0,0,0,0.0,0.0,0.0,9.5,16.2,86.9,20.0,1000.0,0.0,0.0,0,1,15,25,129,154,0,0,0,0,15,11,0,0,0,0,0,0,0,0,0,0,0,0,0,0,0,0,0,0,0,0,0,0,0,0,0,0,0,0,0,0,0,0,0,0,0,0,0,0,0,0,0,0,0,0,0
2019/12/21,00:22:20,OFF,-0.1,1.00,0,0.0,387,22.3,20.9,0,60,-1,0,0,0.00,0,0,-1,0,0,0,0.00,442,0,0.0,0,0,0,0,0,0,0,0.00,0,0,0.0,0,0,0,0,0,0.0,3.2,0,0,0.00,0,0,0,0,0.00,0,0,0,0,0,0,0,0,0,0,0,0,0,0,0,0,0,0,0,0,0,0,0,0,0,0,0,0,0,0,0,0,0,0.0,0.0,0.0,9.5,16.2,86.9,20.0,1000.0,0.0,0.0,0,1,15,25,129,154,0,0,0,0,15,11,0,0,0,0,0,0,0,0,0,0,0,0,0,0,0,0,0,0,0,0,0,0,0,0,0,0,0,0,0,0,0,0,0,0,0,0,0,0,0,0,0,0,0,0,0
2019/12/21,00:22:30,OFF,-0.1,1.00,0,0.0,387,22.3,20.9,0,60,-1,0,0,0.00,0,0,-1,0,0,0,0.00,442,0,0.0,0,0,0,0,0,0,0,0.00,0,0,0.0,0,0,0,0,0,0.0,3.2,0,0,0.00,0,0,0,0,0.00,0,0,0,0,0,0,0,0,0,0,0,0,0,0,0,0,0,0,0,0,0,0,0,0,0,0,0,0,0,0,0,0,0,0.0,0.0,0.0,9.5,16.2,86.9,20.0,1000.0,0.0,0.0,0,1,15,25,129,154,0,0,0,0,15,0,0,0,0,0,0,0,0,0,0,0,0,0,0,0,0,0,0,0,0,0,0,0,0,0,0,0,0,0,0,0,0,0,0,0,0,0,0,0,0,0,0,0,0,0,0
2019/12/21,00:22:40,OFF,-0.1,1.00,0,0.0,387,22.3,20.9,0,60,-1,0,0,0.00,0,0,-1,0,0,0,0.00,441,0,0.0,0,0,0,0,0,0,0,0.00,0,0,0.0,0,0,0,0,0,0.0,3.2,0,0,0.00,0,0,0,0,0.00,0,0,0,0,0,0,0,0,0,0,0,0,0,0,0,0,0,0,0,0,0,0,0,0,0,0,0,0,0,0,0,0,0,0.0,0.0,0.0,9.5,16.2,86.9,20.0,1000.0,0.0,0.0,0,1,15,25,129,154,0,0,0,0,15,11,0,0,0,0,0,0,0,0,0,0,0,0,0,0,0,0,0,0,0,0,0,0,0,0,0,0,0,0,0,0,0,0,0,0,0,0,0,0,0,0,0,0,0,0,0
2019/12/21,00:22:50,OFF,-0.1,1.00,0,0.0,387,22.3,20.9,0,60,-1,0,0,0.00,0,0,-1,0,0,0,0.00,442,0,0.0,0,0,0,0,0,0,0,0.00,0,0,0.0,0,0,0,0,0,0.0,3.2,0,0,0.00,0,0,0,0,0.00,0,0,0,0,0,0,0,0,0,0,0,0,0,0,0,0,0,0,0,0,0,0,0,0,0,0,0,0,0,0,0,0,0,0.0,0.0,0.0,9.5,16.2,86.9,20.0,1000.0,0.0,0.0,0,1,15,25,129,154,0,0,0,0,15,11,0,0,0,0,0,0,0,0,0,0,0,0,0,0,0,0,0,0,0,0,0,0,0,0,0,0,0,0,0,0,0,0,0,0,0,0,0,0,0,0,0,0,0,0,0
2019/12/21,00:23:00,OFF,-0.1,1.00,0,0.0,387,22.3,20.9,0,60,-1,0,0,0.00,0,0,-1,0,0,0,0.00,441,0,0.0,0,0,0,0,0,0,0,0.00,0,0,0.0,0,0,0,0,0,0.0,3.2,0,0,0.00,0,0,0,0,0.00,0,0,0,0,0,0,0,0,0,0,0,0,0,0,0,0,0,0,0,0,0,0,0,0,0,0,0,0,0,0,0,0,0,0.0,0.0,0.0,9.5,16.2,86.9,20.0,1000.0,0.0,0.0,0,1,15,25,129,154,0,0,0,0,15,11,0,0,0,0,0,0,0,0,0,0,0,0,0,0,0,0,0,0,0,0,0,0,0,0,0,0,0,0,0,0,0,0,0,0,0,0,0,0,0,0,0,0,0,0,0
2019/12/21,00:23:10,OFF,-0.1,1.00,0,0.0,387,22.3,20.9,0,60,-1,0,0,0.00,0,0,-1,0,0,0,0.00,442,0,0.0,0,0,0,0,0,0,0,0.00,0,0,0.0,0,0,0,0,0,0.0,3.2,0,0,0.00,0,0,0,0,0.00,0,0,0,0,0,0,0,0,0,0,0,0,0,0,0,0,0,0,0,0,0,0,0,0,0,0,0,0,0,0,0,0,0,0.0,0.0,0.0,9.5,16.2,86.9,20.0,1000.0,0.0,0.0,0,1,15,25,129,154,0,0,0,0,15,11,0,0,0,0,0,0,0,0,0,0,0,0,0,0,0,0,0,0,0,0,0,0,0,0,0,0,0,0,0,0,0,0,0,0,0,0,0,0,0,0,0,0,0,0,0
2019/12/21,00:23:20,OFF,-0.1,1.00,0,0.0,387,22.3,20.9,0,60,-1,0,0,0.00,0,0,-1,0,0,0,0.00,441,0,0.0,0,0,0,0,0,0,0,0.00,0,0,0.0,0,0,0,0,0,0.0,3.2,0,0,0.00,0,0,0,0,0.00,0,0,0,0,0,0,0,0,0,0,0,0,0,0,0,0,0,0,0,0,0,0,0,0,0,0,0,0,0,0,0,0,0,0.0,0.0,0.0,9.5,16.2,86.9,20.0,1000.0,0.0,0.0,0,1,15,25,129,154,0,0,0,0,15,11,0,0,0,0,0,0,0,0,0,0,0,0,0,0,0,0,0,0,0,0,0,0,0,0,0,0,0,0,0,0,0,0,0,0,0,0,0,0,0,0,0,0,0,0,0
2019/12/21,00:23:30,OFF,-0.1,1.00,0,0.0,387,22.3,20.9,0,60,-1,0,0,0.00,0,0,-1,0,0,0,0.00,442,0,0.0,0,0,0,0,0,0,0,0.00,0,0,0.0,0,0,0,0,0,0.0,3.2,0,0,0.00,0,0,0,0,0.00,0,0,0,0,0,0,0,0,0,0,0,0,0,0,0,0,0,0,0,0,0,0,0,0,0,0,0,0,0,0,0,0,0,0.0,0.0,0.0,9.5,16.2,86.9,20.0,1000.0,0.0,0.0,0,1,15,25,129,154,0,0,0,0,15,11,0,0,0,0,0,0,0,0,0,0,0,0,0,0,0,0,0,0,0,0,0,0,0,0,0,0,0,0,0,0,0,0,0,0,0,0,0,0,0,0,0,0,0,0,0
2019/12/21,00:23:40,OFF,-0.1,1.00,0,0.0,387,22.3,20.9,0,60,-1,0,0,0.00,0,0,-1,0,0,0,0.00,442,0,0.0,0,0,0,0,0,0,0,0.00,0,0,0.0,0,0,0,0,0,0.0,3.2,0,0,0.00,0,0,0,0,0.00,0,0,0,0,0,0,0,0,0,0,0,0,0,0,0,0,0,0,0,0,0,0,0,0,0,0,0,0,0,0,0,0,0,0.0,0.0,0.0,9.5,16.2,86.9,20.0,1000.0,0.0,0.0,0,1,15,25,129,154,0,0,0,0,15,12,0,0,0,0,0,0,0,0,0,0,0,0,0,0,0,0,0,0,0,0,0,0,0,0,0,0,0,0,0,0,0,0,0,0,0,0,0,0,0,0,0,0,0,0,0
2019/12/21,00:23:50,OFF,-0.1,1.00,0,0.0,387,22.3,20.9,0,60,-1,0,0,0.00,0,0,-1,0,0,0,0.00,441,0,0.0,0,0,0,0,0,0,0,0.00,0,0,0.0,0,0,0,0,0,0.0,3.2,0,0,0.00,0,0,0,0,0.00,0,0,0,0,0,0,0,0,0,0,0,0,0,0,0,0,0,0,0,0,0,0,0,0,0,0,0,0,0,0,0,0,0,0.0,0.0,0.0,9.5,16.2,86.9,20.0,1000.0,0.0,0.0,0,1,15,25,129,154,0,0,0,0,15,12,0,0,0,0,0,0,0,0,0,0,0,0,0,0,0,0,0,0,0,0,0,0,0,0,0,0,0,0,0,0,0,0,0,0,0,0,0,0,0,0,0,0,0,0,0
2019/12/21,00:24:00,OFF,-0.1,1.00,0,0.0,387,22.3,20.9,0,60,-1,0,0,0.00,0,0,-1,0,0,0,0.00,441,0,0.0,0,0,0,0,0,0,0,0.00,0,0,0.0,0,0,0,0,0,0.0,3.2,0,0,0.00,0,0,0,0,0.00,0,0,0,0,0,0,0,0,0,0,0,0,0,0,0,0,0,0,0,0,0,0,0,0,0,0,0,0,0,0,0,0,0,0.0,0.0,0.0,9.5,16.2,86.9,20.0,1000.0,0.0,0.0,0,1,15,25,129,154,0,0,0,0,15,12,0,0,0,0,0,0,0,0,0,0,0,0,0,0,0,0,0,0,0,0,0,0,0,0,0,0,0,0,0,0,0,0,0,0,0,0,0,0,0,0,0,0,0,0,0
2019/12/21,00:24:10,OFF,-0.1,1.00,0,0.0,387,22.3,20.9,0,60,-1,0,0,0.00,0,0,-1,0,0,0,0.00,442,0,0.0,0,0,0,0,0,0,0,0.00,0,0,0.0,0,0,0,0,0,0.0,3.2,0,0,0.00,0,0,0,0,0.00,0,0,0,0,0,0,0,0,0,0,0,0,0,0,0,0,0,0,0,0,0,0,0,0,0,0,0,0,0,0,0,0,0,0.0,0.0,0.0,9.5,16.2,86.9,20.0,1000.0,0.0,0.0,0,1,15,25,129,154,0,0,0,0,15,12,0,0,0,0,0,0,0,0,0,0,0,0,0,0,0,0,0,0,0,0,0,0,0,0,0,0,0,0,0,0,0,0,0,0,0,0,0,0,0,0,0,0,0,0,0
